code,lat,lon,elev,state,name,x,y
USC00010160,32.9453,-85.9481,195.1,AL,ALEXANDER CITY,310,62
USC00010402,31.1819,-87.4389,91.4,AL,ATMORE,298,48
USC00010583,30.8839,-87.7853,82.6,AL,BAY MINETTE,295,46
USC00010655,34.6908,-86.8825,182.9,AL,BELLE MINA 2 N,302,76
USC00010764,33.3953,-87.0078,135.6,AL,BESSEMER 3 WSW,301,66
USC00011080,31.1414,-87.0486,48.8,AL,BREWTON 3 ENE,301,48
USC00011099,34.9786,-85.8008,204.2,AL,BRIDGEPORT 5 NW,311,78
USC00011620,33.285,-86.3431,127.4,AL,CHILDERSBURG WTR PL,307,65
USC00012172,30.2506,-88.0775,2.4,AL,DAUPHIN ISLAND 2,292,42
USC00012813,30.5467,-87.8808,7,AL,FAIRHOPE 2 NE,295,43
USC00013154,34.0219,-85.9878,172.2,AL,GADSDEN,310,71
USC00013160,32.8347,-88.1342,38.1,AL,GAINESVILLE LOCK,292,61
USC00013519,31.79,-86.6086,104.2,AL,GREENVILLE,305,53
USC00013620,34.2314,-87.6353,280.4,AL,HALEYVILLE,296,72
USC00013645,34.0967,-87.9914,132.6,AL,HAMILTON 3 S,294,71
USC00013816,31.8814,-86.2503,132,AL,HIGHLAND HOME,307,54
USC00015635,34.4883,-87.2989,189.6,AL,MOULTON 2,299,74
USC00016478,33.6906,-86.685,185.3,AL,PINSON,304,68
USC00016988,30.5653,-87.7017,49.1,AL,ROBERTSDALE,296,43
USC00017207,34.2878,-85.9681,362.7,AL,SAND MT SUBSTN,310,73
USC00017999,33.2053,-86.2114,149.4,AL,SYLACAUGA 4 NE,308,64
USC00018024,33.4164,-86.135,136.6,AL,TALLADEGA,308,66
USC00018178,31.9172,-87.7347,118.9,AL,THOMASVILLE,296,54
USC00018209,32.9206,-86.6708,207.3,AL,THORSBY EXP STN,304,62
USC00018380,33.2119,-87.6161,51.5,AL,TUSCALOOSA ACFD,297,64
USC00018438,32.0142,-85.7464,134.1,AL,UNION SPRINGS 9 S,312,55
USC00018469,34.5667,-85.6128,323.7,AL,VALLEY HEAD,313,75
USC00020100,34.2281,-113.578,393.2,AZ,ALAMO DAM,89,72
USC00020287,31.9792,-111.383,838.2,AZ,ANVIL RCH,106,54
USC00020750,36.6778,-110.541,2220.8,AZ,BETATAKIN,113,92
USC00020949,33.9431,-114.024,281.9,AZ,BOUSE,85,70
USC00020958,32.325,-109.492,1151.2,AZ,BOWIE,122,57
USC00021050,35.1411,-114.569,161.8,AZ,BULLHEAD CITY,81,80
USC00021231,31.5589,-110.529,1527,AZ,CANELO 1 NW,113,51
USC00021248,36.1533,-109.539,1709.9,AZ,CANYON DE CHELLY,121,88
USC00021314,32.9947,-111.537,432.5,AZ,CASA GRANDE NM,105,62
USC00021330,32.3222,-110.415,973.5,AZ,CASCABEL,114,57
USC00021353,33.9825,-112.362,606.6,AZ,CASTLE HOT SPRINGS,99,70
USC00022109,34.305,-112.165,1149.4,AZ,CORDES,100,73
USC00022140,31.3456,-110.254,1597.8,AZ,CORONADO NM HQ,115,49
USC00022754,32.7481,-109.121,1115.6,AZ,DUNCAN,125,60
USC00023150,33.0094,-109.985,864.1,AZ,FT THOMAS 2 SW,118,63
USC00023160,35.2681,-111.743,2239.4,AZ,FT VALLEY,104,81
USC00023190,33.6028,-111.713,481.6,AZ,FOUNTAIN HILLS,104,67
USC00023393,32.9481,-112.713,224,AZ,GILA BEND,96,62
USC00023596,36.0528,-112.15,2068.1,AZ,GRAND CANYON NP 2,100,87
USC00024089,34.9094,-110.154,1549.9,AZ,HOLBROOK,116,78
USC00024453,34.7522,-112.111,1508.8,AZ,JEROME,101,77
USC00024702,33.2742,-113.965,541,AZ,KOFA MINE,86,65
USC00025270,33.1139,-112.03,353.6,AZ,MARICOPA 4 N,101,63
USC00025412,34.1142,-109.859,2237.2,AZ,MC NARY 2N,119,71
USC00025635,34.6106,-111.838,969.3,AZ,MONTEZUMA CASTLE NM,103,75
USC00025924,31.4553,-110.968,1054.9,AZ,NOGALES 6 N,110,50
USC00026132,31.9556,-112.8,511.5,AZ,ORGAN PIPE CACTUS NM,95,54
USC00026180,36.9208,-111.448,1301.5,AZ,PAGE,106,94
USC00026468,34.7994,-109.885,1659.9,AZ,PETRIFIED FOREST NP,118,77
USC00026471,36.1383,-112.096,771.1,AZ,PHANTOM RANCH,101,88
USC00026616,36.8586,-112.739,1499.6,AZ,PIPE SPRINGS NATL MON,96,93
USC00026716,31.8828,-109.206,1642.9,AZ,PORTAL 4 SW,124,54
USC00027281,33.6731,-111.151,672.1,AZ,ROOSEVELT 1 WNW,108,68
USC00027390,32.815,-109.681,900.4,AZ,SAFFORD AGRICULTRL CTR,120,61
USC00027435,34.5172,-109.403,1764.8,AZ,SAINT JOHNS,122,75
USC00027716,35.3322,-112.88,1600.2,AZ,SELIGMAN,94,81
USC00027855,34.2639,-110.007,1954.1,AZ,SHOW LOW AP,117,73
USC00028012,34.5081,-110.084,1719.7,AZ,SNOWFLAKE,117,75
USC00028329,35.3694,-111.544,2127.5,AZ,SUNSET CRATER NM,105,81
USC00028396,32.7225,-113.919,98.8,AZ,TACNA 3 NE,86,60
USC00028619,31.7119,-110.069,1420.1,AZ,TOMBSTONE,117,52
USC00028815,32.2292,-110.954,742.2,AZ,TUCSON WFO,110,56
USC00028865,31.5678,-111.05,995.8,AZ,TUMACACORI NM,109,51
USC00029158,34.9281,-112.81,1551.4,AZ,WALNUT CREEK,95,78
USC00029287,33.9792,-112.74,638.6,AZ,WICKENBURG,96,70
USC00029334,32.2553,-109.837,1271,AZ,WILLCOX,119,57
USC00029359,35.2406,-112.19,2057.4,AZ,WILLIAMS,100,80
USC00029542,35.5247,-111.37,1496,AZ,WUPATKI NM,107,83
USC00029634,33.595,-112.301,345.9,AZ,YOUNGTOWN,99,67
USC00029645,34.8775,-114.134,594.4,AZ,YUCCA 1 NNE,84,78
USC00030064,35.9289,-91.0583,76.8,AR,ALICIA 2NNE,269,86
USC00030130,34.7961,-92.8417,212.8,AR,ALUM FORK,255,77
USC00030240,34.025,-91.3444,59.1,AR,ARKANSAS POST,267,71
USC00030458,35.8306,-91.7944,174,AR,BATESVILLE LVSTK,263,85
USC00030536,35.4583,-91.0561,73.2,AR,BEEDEVILLE 4 NE,269,82
USC00030798,35.1161,-93.6506,129.8,AR,BLUE MTN DAM,248,79
USC00030806,35.9239,-89.9044,76.8,AR,BLYTHEVILLE,278,86
USC00030832,35.0931,-93.9258,182.9,AR,BOONEVILLE 3 SSE,246,79
USC00031132,36.1092,-92.1636,106.7,AR,CALICO ROCK 2 WSW,260,87
USC00031152,33.59,-92.8236,35.4,AR,CAMDEN 1,255,67
USC00031632,36.4197,-90.5858,91.4,AR,CORNING,273,90
USC00031730,33.1111,-91.9481,54.9,AR,CROSSETT 2 SSE,262,63
USC00031838,35.2342,-93.1675,112.8,AR,DARDANELLE,252,80
USC00031900,35.8272,-93.2044,723.9,AR,DEER,252,85
USC00031948,34.0464,-94.3481,124.1,AR,DEQUEEN,243,71
USC00031962,33.5597,-91.385,44.2,AR,DERMOTT 3 NE,266,67
USC00032148,33.8847,-91.5317,49.7,AR,DUMAS,265,70
USC00032355,33.1144,-91.2628,41.1,AR,EUDORA,267,63
USC00032540,33.8228,-92.3989,70.1,AR,FORDYCE,258,69
USC00032794,35.9914,-92.7147,189,AR,GILBERT,256,86
USC00032930,36.4261,-94.4481,384,AR,GRAVETTE,242,90
USC00032978,35.5206,-91.9997,160.6,AR,GREERS FERRY DAM,262,83
USC00033428,33.7089,-93.5561,114.3,AR,HOPE 3 NE,249,68
USC00033466,34.5128,-93.0486,190.8,AR,HOT SPRINGS 1 NNE,253,75
USC00033544,36.07,-93.7522,543.5,AR,HUNTSVILLE 1 SSW,247,87
USC00033734,35.8489,-90.6589,94.5,AR,JONESBORO 2 NE,272,85
USC00033821,35.6872,-90.0964,70.7,AR,KEISER,277,84
USC00033862,34.6033,-91.9928,70.4,AR,KEO,262,75
USC00034106,36.4194,-92.9158,253,AR,LEAD HILL,254,90
USC00034548,33.295,-93.2325,99.1,AR,MAGNOLIA,252,65
USC00034572,36.4947,-91.535,153,AR,MAMMOTH SPRING,265,90
USC00034638,34.7392,-90.7664,71.3,AR,MARIANNA 2 S,271,76
USC00034988,34.5408,-93.5878,212.4,AR,MT IDA 3 SE,249,75
USC00035112,33.9294,-93.8583,121.9,AR,NASHVILLE,247,70
USC00035186,35.6042,-91.2744,69.5,AR,NEWPORT,267,83
USC00035563,36.0336,-90.4978,82.3,AR,PARAGOULD 1S,274,87
USC00035866,33.2511,-91.5058,39,AR,PORTLAND,265,65
USC00035908,33.8203,-93.3878,93.9,AR,PRESCOTT 2 NNW,250,69
USC00036253,33.8103,-91.2778,45.7,AR,ROHWER 2 NNE,267,69
USC00036506,35.2683,-91.7164,70.1,AR,SEARCY,264,81
USC00036562,34.3019,-92.3914,76.2,AR,SHERIDAN,258,73
USC00036920,34.4744,-91.4172,60.4,AR,STUTTGART 9 ESE,266,74
USC00036928,35.3028,-93.6369,152.4,AR,SUBIACO,248,81
USC00037488,34.8992,-94.1942,205.7,AR,WALDRON,244,78
USC00037582,33.6044,-92.0997,64,AR,WARREN 2 WSW,261,67
USC00037712,35.1242,-90.1805,65.5,AR,WEST MEMPHIS,276,79
USC00038052,35.2547,-90.7964,79.2,AR,WYNNE,271,81
USC00040212,38.5731,-122.441,522.7,CA,ANGWIN PAC UNION COL,18,107
USC00040343,36.4914,-118.825,520.6,CA,ASH MTN,47,90
USC00040379,37.0919,-119.513,637,CA,AUBERRY 2 NW,41,95
USC00040383,38.9072,-121.084,393.8,CA,AUBURN,29,110
USC00040673,37.0856,-122.08,128,CA,BEN LOMOND 4,21,95
USC00040741,34.2442,-116.904,2060.4,CA,BIG BEAR LAKE,62,72
USC00040931,39.3886,-120.094,1699.3,CA,BOCA,37,114
USC00040943,38.2119,-119.014,2551.2,CA,BODIE CA ST HISTORIC PARK,45,104
USC00040983,33.2314,-116.414,245.4,CA,BORREGO DESERT PARK,66,64
USC00041072,38.2575,-119.229,1972.1,CA,BRIDGEPORT,44,105
USC00041244,35.4047,-119.473,82,CA,BUTTONWILLOW,42,82
USC00041253,34.5825,-119.982,238.7,CA,CACHUMA LAKE,38,75
USC00041277,38.2769,-120.311,1431,CA,CALAVERAS BIG TREES,35,105
USC00041316,41.3111,-122.804,970.8,CA,CALLAHAN,15,129
USC00041428,38.2486,-120.843,200.6,CA,CAMP PARDEE,31,104
USC00041497,40.1703,-121.088,1389.9,CA,CANYON DAM,29,120
USC00041614,41.5306,-120.18,1408.5,CA,CEDARVILLE,36,131
USC00041697,37.9747,-119.916,1452.4,CA,CHERRY VALLEY DAM,38,102
USC00041864,36.1356,-120.361,204.2,CA,COALINGA,35,88
USC00041912,39.0911,-120.948,725.4,CA,COLFAX,30,111
USC00042012,36.0975,-119.582,61,CA,CORCORAN IRRIG DIST,41,87
USC00042081,39.8158,-123.244,430.7,CA,COVELO,12,117
USC00042147,41.7958,-124.215,13.1,CA,CRESCENT CITY 3 NNW,4,133
USC00042294,38.535,-121.776,18.3,CA,DAVIS 2 WSW EXP FARM,23,107
USC00042467,39.3239,-120.233,1809.6,CA,DONNER MEM SP,36,113
USC00042500,39.5633,-120.824,888.5,CA,DOWNIEVILLE,31,115
USC00042574,41.1833,-122.274,661.4,CA,DUNSMUIR TRTMNT PLT,19,128
USC00042598,33.8089,-115.451,296.6,CA,EAGLE MTN,74,69
USC00042713,32.7669,-115.562,-9.1,CA,EL CENTRO 2 SSW,73,61
USC00042771,34.5892,-117.63,899.2,CA,EL MIRAGE,56,75
USC00042934,38.2736,-122.068,12.2,CA,FAIRFIELD,21,105
USC00043157,41.52,-120.09,1442.3,CA,FT BIDWELL,37,131
USC00043463,35.7269,-118.701,957.1,CA,GLENNVILLE,48,84
USC00043551,36.7394,-118.963,2011.7,CA,GRANT GROVE,46,92
USC00043578,38.4306,-122.865,61,CA,GRATON,15,106
USC00043710,36.1389,-117.953,1165.9,CA,HAIWEE,54,88
USC00043747,36.3158,-119.637,72.2,CA,HANFORD 1 S,40,89
USC00043824,40.9317,-121.543,919,CA,HAT CREEK,25,126
USC00043855,33.7044,-115.629,417.6,CA,HAYFIELD PUMPING PLT,72,68
USC00043875,38.6175,-122.873,32.9,CA,HEALDSBURG,15,107
USC00043939,37.9614,-119.783,1179.6,CA,HETCH HETCHY,39,102
USC00044211,33.7572,-116.707,1639.8,CA,IDYLLWILD FIRE DEPT,64,69
USC00044223,32.8489,-115.567,-19.5,CA,IMPERIAL,73,61
USC00044232,36.7981,-118.204,1204,CA,INDEPENDENCE,52,93
USC00044297,34.1472,-115.122,281,CA,IRON MTN,77,72
USC00044555,36.2069,-121.138,97.5,CA,KING CITY,28,88
USC00044671,34.2467,-117.188,1586.5,CA,LAKE ARROWHEAD,60,72
USC00044838,41.7019,-121.501,1453.9,CA,LAVA BEDS NM,25,132
USC00044890,36.3817,-119.026,156.4,CA,LEMON COVE,45,90
USC00044997,37.6922,-121.769,146.3,CA,LIVERMORE,23,100
USC00045026,36.6044,-118.732,2052.8,CA,LODGEPOLE,48,91
USC00045118,37.0564,-120.867,36.6,CA,LOS BANOS,31,95
USC00045123,37.2319,-121.959,111.3,CA,LOS GATOS,22,96
USC00045311,40.5411,-121.577,1752.6,CA,MANZANITA LAKE,25,123
USC00045360,38.4917,-122.124,146.3,CA,MARKLEY COVE,21,106
USC00045378,38.0131,-122.114,12.2,CA,MARTINEZ WTP,21,103
USC00045532,37.2858,-120.512,46.6,CA,MERCED,33,97
USC00045679,40.3458,-121.609,1485.9,CA,MINERAL,25,121
USC00045721,34.9436,-115.547,1325.9,CA,MITCHELL CAVERNS,73,78
USC00045795,36.5903,-121.91,117.3,CA,MONTEREY,22,91
USC00045933,37.3436,-121.643,1282,CA,MT HAMILTON,24,97
USC00046074,38.2778,-122.265,10.7,CA,NAPA STATE HOSPITAL,19,105
USC00046136,39.2467,-121.001,847.6,CA,NEVADA CITY,29,112
USC00046144,37.5147,-122.033,3,CA,NEWARK,21,99
USC00046506,39.7458,-122.2,77.4,CA,ORLAND,20,116
USC00046624,34.5883,-118.094,794.3,CA,PALMDALE,53,75
USC00046635,33.8275,-116.51,129.5,CA,PALM SPRINGS,65,69
USC00046657,33.3781,-116.84,1691.6,CA,PALOMAR MTN OBSVTRY,63,66
USC00046685,39.7536,-121.624,533.4,CA,PARADISE,25,117
USC00046699,34.2903,-114.171,224.9,CA,PARKER RSVR,84,73
USC00046730,35.6278,-120.686,222.5,CA,PASO ROBLES,32,84
USC00046826,38.2578,-122.608,6.1,CA,PETALUMA AP,17,105
USC00047085,39.8053,-120.472,1478.3,CA,PORTOLA,34,117
USC00047109,39.3619,-123.129,310.3,CA,POTTER VALLEY P H,12,113
USC00047150,36.1883,-120.695,701,CA,PRIEST VALLEY,32,88
USC00047253,35.3692,-117.652,1088.1,CA,RANDSBURG,56,81
USC00047306,34.0528,-117.189,401.7,CA,REDLANDS,60,71
USC00047404,40.0261,-123.793,153.3,CA,RICHARDSON GR SP,7,119
USC00047643,38.5067,-122.471,68.6,CA,SAINT HELENA,18,107
USC00047821,37.3592,-121.924,15.5,CA,SAN JOSE,22,97
USC00047851,35.3039,-120.665,93.9,CA,SAN LUIS OBISPO POLY U,32,81
USC00047888,33.7442,-117.867,41.1,CA,SANTA ANA FIRE STN,55,68
USC00047916,36.9906,-121.991,39.6,CA,SANTA CRUZ,22,94
USC00047953,34.0075,-118.5,4.3,CA,SANTA MONICA PIER,50,71
USC00047965,38.4381,-122.698,53,CA,SANTA ROSA,16,106
USC00048045,40.4831,-124.104,41.5,CA,SCOTIA,5,122
USC00048135,40.7142,-122.416,327.7,CA,SHASTA DAM,18,124
USC00048351,38.2994,-122.462,29.6,CA,SONOMA,18,105
USC00048606,39.5631,-121.108,1160.7,CA,STRAWBERRY VALLEY,29,115
USC00048758,39.1678,-120.143,1898.9,CA,TAHOE CITY,36,112
USC00048917,36.465,-118.862,347.5,CA,THREE RVRS EDISON PH 1,47,90
USC00049043,39.3331,-120.173,1774.9,CA,TRUCKEE RS,36,113
USC00049122,39.1467,-123.21,193.9,CA,UKIAH,12,112
USC00049152,34.0697,-118.443,131.1,CA,U C L A,50,71
USC00049200,38.3956,-121.961,33.5,CA,VACAVILLE,22,106
USC00049367,36.3283,-119.299,99.1,CA,VISALIA,43,89
USC00049473,36.9308,-121.769,29,CA,WATSONVILLE WTR WKS,23,94
USC00049684,39.4194,-123.342,412.4,CA,WILLITS 1 NE,11,114
USC00049742,38.5228,-121.968,41.1,CA,WINTERS,22,107
USC00049866,41.7036,-122.641,800.1,CA,YREKA,16,132
USC00050214,39.5008,-108.379,1730.3,CO,ALTENBERN,130,115
USC00050263,38.9933,-105.892,2718.8,CO,ANTERO RSVR,150,110
USC00050372,39.1853,-106.838,2455.5,CO,ASPEN 1 SW,143,112
USC00050454,39.4047,-105.477,2356.1,CO,BAILEY,154,114
USC00050848,39.9919,-105.267,1671.5,CO,BOULDER,155,118
USC00050945,40.635,-104.327,1473.4,CO,BRIGGSDALE,163,124
USC00050950,39.9436,-104.836,1528.9,CO,BRIGHTON 3 SE,159,118
USC00051179,39.7403,-104.128,1554.5,CO,BYERS 5 ENE,164,116
USC00051186,39.6553,-105.709,3054.1,CO,CABIN CREEK,152,116
USC00051268,37.0158,-102.555,1255.2,CO,CAMPO 7 S,177,95
USC00051458,37.7067,-106.144,2338.7,CO,CENTER 4 SSW,148,100
USC00051528,39.2203,-105.278,2097,CO,CHEESMAN,155,112
USC00051564,38.8219,-102.351,1313.7,CO,CHEYENNE WELLS,179,109
USC00051609,38.4442,-107.559,2137,CO,CIMARRON,137,106
USC00051713,38.4461,-106.761,2439,CO,COCHETOPA CREEK,143,106
USC00051886,37.3444,-108.593,1879.7,CO,CORTEZ,129,97
USC00051959,38.8739,-106.977,2702.1,CO,CRESTED BUTTE,142,109
USC00052184,37.6742,-106.325,2396.9,CO,DEL NORTE 2E,147,100
USC00052281,39.6261,-106.035,2763,CO,DILLON 1 E,149,116
USC00052286,40.2442,-108.972,1820.3,CO,DINOSAUR NATL MONUMNT,126,120
USC00052790,39.6381,-105.315,2129,CO,EVERGREEN,155,116
USC00053005,40.6147,-105.131,1525.2,CO,FT COLLINS,156,123
USC00053489,39.0422,-108.466,1450.8,CO,GRAND JUNCTION 6 ESE,130,111
USC00053496,40.2669,-105.832,2657.9,CO,GRAND LAKE 1 NW,151,121
USC00053500,40.185,-105.867,2526.2,CO,GRAND LAKE 6 SSW,151,120
USC00053530,39.4608,-105.679,2644.1,CO,GRANT,152,114
USC00053541,37.7333,-105.512,2494.2,CO,GREAT SAND DUNES NM,153,100
USC00053553,40.4022,-104.699,1437.1,CO,GREELEY UNC,160,122
USC00053867,40.4928,-107.255,1971.1,CO,HAYDEN,139,122
USC00054082,40.5453,-102.341,1152.1,CO,HOLYOKE,179,123
USC00054726,37.7511,-103.478,1283.2,CO,LA JUNTA 20 S,170,101
USC00054742,38.9075,-105.471,2606,CO,LAKE GEORGE 8 SW,154,110
USC00054762,39.7489,-105.121,1719.1,CO,LAKEWOOD,157,116
USC00054770,38.0936,-102.631,1105.5,CO,LAMAR,176,103
USC00054834,38.0636,-103.215,1185.7,CO,LAS ANIMAS,172,103
USC00054934,37.3769,-107.656,2549.7,CO,LEMON DAM,136,98
USC00054945,40.4897,-103.082,1386.8,CO,LEROY 9 WSW,173,122
USC00055322,37.1742,-105.939,2343.9,CO,MANASSA,150,96
USC00055531,37.1986,-108.488,2160.1,CO,MESA VERDE NP,130,96
USC00055722,38.4858,-107.879,1764.5,CO,MONTROSE 2,134,106
USC00056012,38.1317,-108.286,2139.7,CO,NORWOOD,131,104
USC00056266,39.1136,-108.351,1448.1,CO,PALISADE,131,111
USC00056306,38.8522,-107.624,1699.6,CO,PAONIA 1 SW,137,109
USC00056832,40.0894,-108.772,1610.9,CO,RANGELY 1 E,127,119
USC00057167,38.0392,-103.693,1271,CO,ROCKY FORD 2 SE,168,103
USC00057515,40.8592,-102.517,1216.2,CO,SEDGWICK 5 S,177,125
USC00057936,40.4883,-106.823,2092.8,CO,STEAMBOAT SPRINGS,143,122
USC00058157,38.3422,-104.057,1488,CO,TACONY 13 SE,165,105
USC00058204,37.9492,-107.874,2635.6,CO,TELLURIDE 4WNW,135,102
USC00058429,37.1786,-104.487,1837.9,CO,TRINIDAD,162,96
USC00058756,40.7442,-106.279,2455.5,CO,WALDEN,147,124
USC00058781,37.6303,-104.796,1920.2,CO,WALSENBURG 1 NW,159,100
USC00058793,37.3822,-102.299,1212.5,CO,WALSH 1 W,179,98
USC00058839,40.4256,-105.21,1594.1,CO,WATERDALE,156,122
USC00058995,39.775,-105.117,1645.3,CO,WHEAT RIDGE 2,157,117
USC00059295,40.1236,-102.722,1261.9,CO,YUMA,176,119
USC00060973,41.7944,-72.9319,153.9,CT,BURLINGTON,414,133
USC00065445,41.9725,-73.2208,408.4,CT,NORFOLK 2 SW,412,134
USC00065910,41.5269,-72.0642,6.1,CT,NORWICH PUB UTIL PLT,421,131
USC00072730,39.2583,-75.5167,9.1,DE,DOVER,393,113
USC00075320,38.7756,-75.1389,4.6,DE,LEWES,396,108
USC00079605,39.7739,-75.5414,82.3,DE,WILMINGTON PORTER RES,393,117
USC00080236,27.1819,-81.3508,42.7,FL,ARCHBOLD BIO STN,347,16
USC00080369,27.5947,-81.5267,46.9,FL,AVON PARK 2 W,345,19
USC00080478,27.8986,-81.8433,38.1,FL,BARTOW,343,22
USC00082298,26.6033,-81.1292,6.1,FL,DEVILS GARDEN,348,11
USC00082944,30.6589,-81.4636,4,FL,FERNANDINA BEACH,345,44
USC00083163,26.1019,-80.2011,4.9,FL,FT LAUDERDALE,356,7
USC00083470,30.2717,-82.1856,39,FL,GLEN ST MARY 1 W,340,41
USC00083874,29.7653,-81.4697,3,FL,HASTINGS 4NE,346,37
USC00083909,25.8175,-80.2858,3.7,FL,HIALEAH,355,5
USC00084289,28.8028,-82.3125,12.2,FL,INVERNESS 3 SE,339,29
USC00084394,30.5228,-82.9447,44.8,FL,JASPER,334,43
USC00084625,28.2764,-81.4239,18.3,FL,KISSIMMEE 2,346,25
USC00084731,30.1853,-82.5942,59.4,FL,LAKE CITY 2 E,337,40
USC00085076,28.8728,-81.7844,20.7,FL,LISBON,343,29
USC00085275,30.4517,-83.4119,36.6,FL,MADISON,330,42
USC00085539,30.1064,-83.1819,19.8,FL,MAYO,332,39
USC00086065,27.2417,-82.3161,6.1,FL,MYAKKA RIVER SP,339,16
USC00086414,29.1636,-82.0778,22.9,FL,OCALA,341,32
USC00087025,30.0986,-83.5742,13.7,FL,PERRY,329,39
USC00087205,28.0236,-82.1422,36.6,FL,PLANT CITY,340,23
USC00087397,26.9164,-81.9983,6.1,FL,PUNTA GORDA 4 ESE,342,14
USC00087826,29.8875,-81.2917,3.7,FL,ST AUGUSTINE LH,347,38
USC00087851,28.3378,-82.26,57.9,FL,SAINT LEO,339,25
USC00087982,28.8147,-81.2778,3.7,FL,SANFORD,347,29
USC00088824,28.1522,-82.7539,2.4,FL,TARPON SPGS SEWAGE PL,336,24
USC00088942,28.6242,-80.8158,1.5,FL,TITUSVILLE,351,27
USC00089401,27.5478,-81.7994,18.3,FL,WAUCHULA,343,19
USC00089566,30.1192,-85.2042,12.8,FL,WEWAHITCHKA,316,39
USC00090140,31.5339,-84.1489,54.9,GA,ALBANY 3 SE,324,51
USC00090311,33.5619,-82.3389,112.8,GA,APPLING 2 NW,339,67
USC00091266,32.375,-81.673,54.9,GA,BROOKLET 1 W,344,58
USC00091340,31.1681,-81.5022,4,GA,BRUNSWICK,345,48
USC00091640,33.5972,-85.0806,303.3,GA,CARROLLTON,317,67
USC00091732,34.0589,-85.2339,239.3,GA,CEDARTOWN,316,71
USC00091982,34.8619,-83.4064,583.7,GA,CLAYTON 1 SSW,330,77
USC00092180,34.2625,-83.4894,228.6,GA,COMMERCE 4 NNW,330,73
USC00092266,31.985,-83.7747,93.9,GA,CORDELE,327,54
USC00092283,34.5181,-83.5286,448.1,GA,CORNELIA,329,75
USC00092450,31.7672,-84.7931,140.5,GA,CUTHBERT,319,53
USC00092485,33.9881,-84.7475,335.3,GA,DALLAS 7 NE,320,70
USC00092839,32.5575,-82.9036,70.1,GA,DUBLIN,334,59
USC00092966,32.2003,-83.2058,121.9,GA,EASTMAN 1 W,332,56
USC00093060,34.1406,-82.855,164.6,GA,ELBERTON 2 N,335,72
USC00093465,30.74,-82.1278,36.6,GA,FOLKSTON 9 SW,340,44
USC00093538,31.8717,-81.6289,28,GA,FT STEWART,344,53
USC00093621,34.3006,-83.86,356.6,GA,GAINESVILLE,327,73
USC00094133,34.3519,-82.93,210.3,GA,HARTWELL,334,73
USC00094648,34.4758,-84.4461,446.5,GA,JASPER 1 NNW,322,74
USC00095314,33.0125,-82.3914,98.1,GA,LOUISVILLE 1 E,338,63
USC00095874,33.0831,-83.2497,112.2,GA,MILLEDGEVILLE,332,63
USC00095988,33.3328,-83.6975,157.9,GA,MONTICELLO,328,65
USC00097087,32.0467,-84.3711,152.4,GA,PLAINS SW GA EXP STN,323,55
USC00097276,30.7836,-83.5692,56.4,GA,QUITMAN 2 NW,329,45
USC00097600,34.2453,-85.1514,200.9,GA,ROME,316,72
USC00097777,32.9744,-82.8045,137.5,GA,SANDERSVILLE,335,62
USC00098064,33.5636,-83.0767,211.8,GA,SILOAM 3N,333,67
USC00098661,32.9028,-84.3367,230.1,GA,THOMASTON,323,62
USC00098950,33.8722,-83.5358,256,GA,U OF GA PLT SCI,329,69
USC00099141,33.4028,-82.6222,149.4,GA,WARRENTON,337,66
USC00099157,33.7264,-82.7058,189,GA,WASHINGTON 2 ESE,336,68
USC00099186,31.2514,-82.3128,44.2,GA,WAYCROSS 4 NE,339,49
USC00099291,32.8694,-85.1892,175.3,GA,WEST POINT,316,61
USC00100010,42.9536,-112.825,1342.6,ID,ABERDEEN EXP STN,95,142
USC00100448,43.5936,-115.924,986,ID,ARROWROCK DAM,70,147
USC00101017,43.7383,-116.202,1184.1,ID,BOISE 7 N,68,148
USC00101079,48.6928,-116.31,632.5,ID,BONNERS FERRY,67,188
USC00101195,42.8819,-115.802,771.1,ID,BRUNEAU,71,142
USC00101220,42.6006,-114.745,1158.2,ID,BUHL 2,80,139
USC00101363,48.0864,-116.057,662.3,ID,CABINET GORGE,69,183
USC00101408,44.5733,-116.675,807.7,ID,CAMBRIDGE,64,155
USC00101551,42.5503,-114.866,1165.9,ID,CASTLEFORD 2 N,79,139
USC00101671,43.9772,-113.829,1908,ID,CHILLY BARTON FLAT,87,150
USC00102159,46.0336,-116.392,1202.4,ID,COTTONWOOD 2 WSW,66,167
USC00102676,43.7306,-111.113,1865.4,ID,DRIGGS,109,148
USC00102707,44.2436,-112.201,1661.2,ID,DUBOIS EXP STN,100,152
USC00102845,46.5022,-116.322,303.3,ID,DWORSHAK FISH HATCH,67,171
USC00102875,45.8356,-115.461,1236.9,ID,ELK CITY 1NE,74,165
USC00102942,43.8544,-116.466,728.5,ID,EMMETT 2 E,66,149
USC00103297,43.0428,-112.413,1360.9,ID,FT HALL 1 NNE,98,143
USC00103448,44.1011,-115.969,944.9,ID,GARDEN VALLEY,70,151
USC00103732,42.5872,-111.728,1691.6,ID,GRACE,104,139
USC00103760,43.0175,-116.177,731.5,ID,GRAND VIEW 4 NW,68,143
USC00103771,45.9414,-116.118,1005.8,ID,GRANGEVILLE,69,166
USC00104140,42.5972,-114.138,1237.5,ID,HAZELTON,84,139
USC00104442,43.8383,-115.832,1208.5,ID,IDAHO CITY,71,149
USC00104455,43.5133,-112.013,1445.4,ID,IDAHO FALLS - KIFI,101,147
USC00104456,43.3456,-111.785,1776.4,ID,IDAHO FALLS 16 SE,103,145
USC00104831,47.5339,-116.122,724.5,ID,KELLOGG,69,179
USC00105275,42.1231,-111.314,1806.2,ID,LIFTON PUMPING STN,107,135
USC00105708,44.8869,-116.105,1531.6,ID,MC CALL,69,158
USC00105897,44.7189,-115.015,1365.5,ID,MIDDLE FORK LODGE,77,156
USC00106152,46.7281,-116.956,810.8,ID,MOSCOW U OF I,62,172
USC00106305,43.6039,-116.575,752.9,ID,NAMPA SUGAR FACTORY,65,147
USC00106424,46.2358,-116.247,987.6,ID,NEZPERCE,68,168
USC00106542,42.2342,-113.898,1389.6,ID,OAKLEY,86,136
USC00106844,43.8022,-116.944,698,ID,PARMA EXP STN,62,149
USC00106877,42.6283,-113.762,1264.9,ID,PAUL 1ENE,87,140
USC00106891,44.0764,-116.931,655.3,ID,PAYETTE,62,151
USC00107040,43.3111,-114.074,1472.2,ID,PICABO,85,145
USC00107301,46.9603,-116.855,841.2,ID,POTLATCH 3 NNE,63,174
USC00107320,46.51,-114.711,1075.9,ID,POWELL,80,171
USC00107386,48.3514,-116.836,725.4,ID,PRIEST RIVER EXP STN,63,185
USC00107648,43.2064,-116.749,1197.9,ID,REYNOLDS,64,144
USC00107673,43.0528,-114.158,1305.2,ID,RICHFIELD,84,143
USC00108022,43.9517,-111.679,1496.6,ID,SAINT ANTHONY,104,150
USC00108062,47.3164,-116.579,655.6,ID,SAINT MARIES,65,177
USC00108080,45.1875,-113.901,1198.2,ID,SALMON-KSRA,86,160
USC00108137,48.2942,-116.563,648,ID,SANDPOINT EXP STN,65,185
USC00108676,44.2206,-114.934,1908,ID,STANLEY,78,152
USC00108928,43.2436,-116.378,708.7,ID,SWAN FALLS P H,66,144
USC00108937,43.4447,-111.294,1633.7,ID,SWAN VALLEY 2 E,107,146
USC00109303,42.5458,-114.346,1207,ID,TWIN FALLS 6 E,83,139
USC00109846,46.2375,-116.622,1204,ID,WINCHESTER,65,168
USC00110072,41.1961,-90.7478,219.5,IL,ALEDO,272,128
USC00110187,37.4814,-89.2344,195.1,IL,ANNA 2 NNE,284,98
USC00110338,41.7806,-88.3092,201.2,IL,AURORA,291,133
USC00110993,37.1275,-88.6531,100.6,IL,BROOKPORT DAM 52,288,96
USC00111160,38.5669,-90.1942,121.9,IL,CAHOKIA,276,107
USC00111265,37.7308,-89.1658,118.9,IL,CARBONDALE SEWAGE PLT,284,100
USC00111436,39.4761,-88.1653,198.1,IL,CHARLESTON,292,114
USC00111475,40.7394,-88.7108,216.4,IL,CHENOA,288,124
USC00111497,42.1406,-87.7867,192,IL,CHICAGO BOTANIC GARDEN,295,136
USC00112140,40.1392,-87.6481,170.1,IL,DANVILLE,296,120
USC00112193,39.8289,-88.9506,189,IL,DECATUR WTP,286,117
USC00112223,41.9342,-88.7756,266.1,IL,DE KALB,287,134
USC00112348,41.8472,-89.5047,213.4,IL,DIXON 1 NW,281,133
USC00112483,37.9878,-89.1931,128,IL,DU QUOIN 4 SE,284,102
USC00112931,38.3806,-88.3264,131.1,IL,FAIRFIELD RADIO WFIW,291,106
USC00113109,38.7103,-88.5758,152.4,IL,FLORA 5 NW,289,108
USC00113262,42.2972,-89.6039,228.6,IL,FREEPORT WASTE WTP,281,137
USC00113290,41.8978,-90.1544,180.4,IL,FULTON L&D 13,276,134
USC00113320,40.9464,-90.3856,235,IL,GALESBURG,274,126
USC00113335,41.1739,-90.035,246.9,IL,GALVA,277,128
USC00113384,41.4511,-90.1486,194.8,IL,GENESEO,276,130
USC00114108,39.15,-89.4833,192,IL,HILLSBORO,282,112
USC00114198,40.4742,-87.6564,216.4,IL,HOOPESTON 1NE,296,122
USC00114442,39.7347,-90.1978,185.9,IL,JACKSONVILLE 2E,276,116
USC00114489,39.1053,-90.3419,192,IL,JERSEYVILLE 2 SW,275,111
USC00114530,41.5033,-88.1028,165.5,IL,JOLIET BRANDON RD DAM,293,131
USC00114603,41.1381,-87.8856,195.1,IL,KANKAKEE WASTEWATER,294,128
USC00114805,41.0411,-89.4061,140.2,IL,LACON 1N,282,127
USC00115712,40.9125,-89.0342,228.6,IL,MINONK,285,126
USC00115768,40.9442,-90.6381,219.5,IL,MONMOUTH,272,126
USC00115833,41.8039,-89.9744,183.8,IL,MORRISON,278,133
USC00115841,39.4158,-89.4614,192,IL,MORRISONVILLE,282,114
USC00115888,38.4106,-87.7578,131.1,IL,MT CARMEL,295,106
USC00115943,38.3483,-88.8533,149.4,IL,MT VERNON 3 NE,287,105
USC00116011,38.3431,-89.3586,156.4,IL,NASHVILLE 1 E,283,105
USC00116446,38.7003,-88.0817,146.3,IL,OLNEY 2S,293,108
USC00116526,41.3283,-88.9106,160,IL,OTTAWA 5SW,286,129
USC00116610,39.6186,-87.6672,199,IL,PARIS STP,296,115
USC00116616,41.4947,-87.6803,216.4,IL,PARK FOREST,296,130
USC00116753,41.3503,-89.1072,189,IL,PERU,285,129
USC00116819,40.7569,-88.1828,204.2,IL,PIPER CITY,292,125
USC00116910,40.8853,-88.6389,198.1,IL,PONTIAC,288,126
USC00117004,40.9314,-89.7797,224,IL,PRINCEVILLE 2W,279,126
USC00117354,41.9117,-89.0708,236.2,IL,ROCHELLE,285,134
USC00117636,38.6453,-88.9461,167.6,IL,SALEM,286,108
USC00118020,37.1644,-88.4311,108.8,IL,SMITHLAND L&D,290,96
USC00118147,38.1167,-89.7167,163.1,IL,SPARTA 1 W,280,103
USC00118293,42.4006,-89.9958,295.7,IL,STOCKTON 3 NNE,278,138
USC00118684,39.795,-88.29,199.6,IL,TUSCOLA,291,117
USC00118740,40.0839,-88.2403,219.8,IL,URBANA,292,119
USC00118781,38.9703,-89.0922,164.6,IL,VANDALIA,285,110
USC00118860,39.5061,-89.7689,205.7,IL,VIRDEN,279,115
USC00118916,41.5519,-89.5989,210.3,IL,WALNUT,281,131
USC00119021,40.7928,-87.7556,189,IL,WATSEKA 2 NW,295,125
USC00119221,41.8128,-88.0728,207.3,IL,WHEATON 3 SE,293,133
USC00119241,39.4411,-90.3789,176.8,IL,WHITE HALL 1 E,274,114
USC00119354,39.4458,-88.5961,210.3,IL,WINDSOR,289,114
USC00120177,40.1117,-85.7164,257.6,IN,ANDERSON SEWAGE PLT,312,119
USC00120200,41.6397,-84.9897,307.8,IN,ANGOLA,318,132
USC00120676,40.6683,-84.9305,265.2,IN,BERNE WWTP,318,124
USC00120784,39.1742,-86.5214,253,IN,BLOOMINGTON IN UNIV,305,112
USC00120830,40.7475,-85.1739,251.5,IN,BLUFFTON 1 N,316,124
USC00121030,39.4239,-85.0128,192,IN,BROOKVILLE,317,114
USC00121739,41.1453,-85.4897,257.6,IN,COLUMBIA CITY,314,128
USC00121747,39.1661,-85.9228,186.8,IN,COLUMBUS,310,112
USC00122149,40.615,-86.6661,169.5,IN,DELPHI 2 N,304,123
USC00122309,38.4558,-86.6983,210.3,IN,DUBOIS S IN FORAGE FM,304,106
USC00122638,40.2872,-85.8453,264,IN,ELWOOD,311,121
USC00122825,40.2539,-85.1483,294.1,IN,FARMLAND 5 NNW,316,121
USC00123082,40.2986,-86.5067,251.2,IN,FRANKFORT DISPOSAL PLT,305,121
USC00123104,38.8672,-87.3083,167.6,IN,FREELANDVILLE,299,109
USC00123418,41.5575,-85.8825,266.7,IN,GOSHEN 3SW,310,131
USC00123513,39.6439,-86.8767,224,IN,GREENCASTLE 1 W,302,116
USC00123527,39.7858,-85.7611,263.7,IN,GREENFIELD,311,117
USC00123547,39.3475,-85.4892,285,IN,GREENSBURG,314,113
USC00124181,40.8556,-85.4981,221,IN,HUNTINGTON,314,125
USC00124272,39.7164,-86.0678,257.6,IN,INDIANAPOLIS SE SIDE,309,116
USC00124662,40.4583,-86.1758,249.9,IN,KOKOMO 3 WSW,308,122
USC00124715,40.2964,-86.9028,224,IN,LAFAYETTE 8 S,302,121
USC00124837,41.6117,-86.7297,257.6,IN,LAPORTE,304,131
USC00125174,41.2647,-87.4178,202.7,IN,LOWELL,298,129
USC00125237,38.7369,-85.3942,140.2,IN,MADISON SEWAGE PLT,314,108
USC00125337,40.58,-85.6586,240.8,IN,MARION 2 N,312,123
USC00125407,39.4039,-86.453,185.9,IN,MARTINSVILLE 2 SW,306,114
USC00126001,37.9286,-87.8956,108.8,IN,MT VERNON,294,102
USC00126164,39.8942,-85.3953,303.6,IN,NEW CASTLE 3 SW,314,118
USC00126580,38.8894,-86.5519,198.1,IN,OOLITIC PURDUE EX FRM,305,110
USC00126705,38.5556,-86.4858,170.7,IN,PAOLI,306,107
USC00127125,38.3567,-87.5906,146.3,IN,PRINCETON 1 W,297,105
USC00127298,40.9356,-87.1564,198.1,IN,RENSSELAER,300,126
USC00127370,39.8544,-84.8778,309.4,IN,RICHMOND WTR WKS,318,117
USC00127522,39.7594,-87.2269,211.2,IN,ROCKVILLE,300,117
USC00127646,39.6042,-85.4528,292.6,IN,RUSHVILLE,314,115
USC00127724,38.1642,-86.8094,155.4,IN,SAINT MEINRAD,303,104
USC00127755,38.6158,-86.0856,239.3,IN,SALEM,309,107
USC00127935,38.9822,-85.8989,173.7,IN,SEYMOUR 2 N,310,110
USC00128036,38.5528,-86.7944,154.2,IN,SHOALS 8 S,303,107
USC00128290,39.2836,-86.7703,167.6,IN,SPENCER,303,113
USC00128698,37.9531,-86.7747,121.9,IN,TELL CITY,303,102
USC00129113,38.7386,-87.4878,137.2,IN,VINCENNES 5 NE,298,108
USC00129222,41.4439,-86.9294,224,IN,WANATAH 2 WNW,302,130
USC00129240,41.2633,-85.8678,248.4,IN,WARSAW,311,129
USC00129430,40.475,-86.9919,217.9,IN,WEST LAFAYETTE 6 NW,302,122
USC00129557,39.9961,-86.3542,289,IN,WHITESTOWN,307,118
USC00129670,41.0267,-86.5867,210.3,IN,WINAMAC 2SSE,305,127
USC00129678,40.1714,-84.9208,338.3,IN,WINCHESTER AIRPORT 3 E,318,120
USC00130112,41.0656,-92.7867,268.2,IA,ALBIA 3 NNE,255,127
USC00130157,42.7536,-92.8022,319.4,IA,ALLISON,255,141
USC00130200,42.0208,-93.7742,335,IA,AMES 8 WSW,247,135
USC00130213,42.1117,-91.2933,245.4,IA,ANAMOSA 1 WNW,267,135
USC00130241,41.7183,-93.5742,286.5,IA,ANKENY,249,132
USC00130364,41.4175,-95.0039,353.6,IA,ATLANTIC 1 NE,237,130
USC00130385,41.7069,-94.9222,390.1,IA,AUDUBON,238,132
USC00130536,40.8236,-94.0475,365.8,IA,BEACONSFIELD,245,125
USC00130576,40.6742,-94.7244,362.7,IA,BEDFORD,240,124
USC00130600,41.8814,-92.2764,246.9,IA,BELLE PLAINE,259,134
USC00130608,42.2614,-90.4233,183.8,IA,BELLEVUE L&D 12,274,137
USC00130753,40.7597,-92.4394,247.5,IA,BLOOMFIELD 1 WNW,258,125
USC00130807,42.0417,-93.8906,320.3,IA,BOONE,246,135
USC00130923,43.1017,-93.8014,378,IA,BRITT,247,143
USC00131060,40.7747,-91.1164,210.3,IA,BURLINGTON 2S,269,125
USC00131233,42.065,-94.85,378,IA,CARROLL,239,135
USC00131257,42.2989,-90.9983,265.2,IA,CASCADE,270,137
USC00131277,42.0633,-95.8364,442,IA,CASTANA EXP FARM,231,135
USC00131319,42.05,-91.5881,246.9,IA,CEDAR RAPIDS NO 1,265,135
USC00131394,41.0164,-93.2792,286.5,IA,CHARITON 1 E,251,127
USC00131402,43.0775,-92.6714,309.1,IA,CHARLES CITY,256,143
USC00131442,42.7572,-95.5378,359.7,IA,CHEROKEE,233,141
USC00131635,41.7947,-90.2639,178.3,IA,CLINTON 1,275,133
USC00131710,42.0169,-93.3189,304.8,IA,COLO,251,135
USC00131731,41.2864,-91.3611,181.4,IA,COLUMBUS JUNCT 1 N,267,129
USC00131954,43.3894,-92.0939,382.5,IA,CRESCO 1 NE,261,146
USC00131962,41.0372,-94.3942,402.3,IA,CRESTON 2 SW,242,127
USC00132110,43.3042,-91.7953,262.1,IA,DECORAH,263,145
USC00132171,42.0364,-95.3289,427,IA,DENISON,235,135
USC00132364,42.5397,-90.6464,189,IA,DUBUQUE L&D 11,272,139
USC00132573,42.3619,-93.0989,348.7,IA,ELDORA,253,137
USC00132603,42.7753,-91.4536,240.2,IA,ELKADER 6 SSW,266,141
USC00132689,43.1025,-94.6833,384,IA,EMMETSBURG,240,143
USC00132724,43.4036,-94.7472,402.3,IA,ESTHERVILLE 4E,240,146
USC00132789,41.0211,-91.9553,225.6,IA,FAIRFIELD,262,127
USC00132864,42.8503,-91.8158,344.4,IA,FAYETTE,263,141
USC00132977,43.2844,-93.6306,396.2,IA,FOREST CITY 2 NNE,248,145
USC00132999,42.5836,-94.2006,347.5,IA,FT DODGE 5NNW,244,139
USC00133007,40.6211,-91.3261,161.5,IA,FT MADISON,267,123
USC00133290,41.0097,-95.7736,298.7,IA,GLENWOOD 3SW,231,127
USC00133438,41.2981,-94.4561,408.4,IA,GREENFIELD,242,129
USC00133473,41.7203,-92.7489,275.8,IA,GRINNELL 3 SW,256,132
USC00133487,42.3647,-92.7594,318.5,IA,GRUNDY CTR,255,137
USC00133509,41.6686,-94.4972,327.7,IA,GUTHRIE CTR,242,132
USC00133517,42.7858,-91.0958,188.4,IA,GUTTENBERG L&D 10,269,141
USC00133584,42.7561,-93.2011,374.9,IA,HAMPTON,252,141
USC00133718,43.0031,-96.485,362.7,IA,HAWARDEN,226,143
USC00134049,42.5269,-91.8781,307.8,IA,INDEPENDENCE 1,262,139
USC00134063,41.3656,-93.6481,287.1,IA,INDIANOLA 2W,248,129
USC00134101,41.6092,-91.505,195.1,IA,IOWA CITY,265,131
USC00134142,42.5189,-93.2536,344.4,IA,IOWA FALLS,251,139
USC00134228,42.0347,-94.4114,321.6,IA,JEFFERSON,242,135
USC00134381,40.3967,-91.375,160.6,IA,KEOKUK LOCK DAM 19,267,122
USC00134389,40.7308,-91.9608,177.1,IA,KEOSAUQUA,262,124
USC00134502,41.3247,-93.1008,278.9,IA,KNOXVILLE,253,129
USC00134561,43.4483,-95.3247,446.5,IA,LAKE PARK,235,146
USC00134585,40.6233,-93.9508,343.8,IA,LAMONI,246,123
USC00134705,41.5697,-90.3956,175.9,IA,LE CLAIRE L&D 14,274,131
USC00134735,42.7817,-96.1458,364.2,IA,LE MARS,228,141
USC00134758,40.7244,-93.6453,304.8,IA,LEON 6 ESE,248,124
USC00134894,41.6381,-95.7883,301.8,IA,LOGAN,231,132
USC00135086,42.4733,-91.4517,301.8,IA,MANCHESTER 2,266,138
USC00135123,42.1619,-95.7836,365.8,IA,MAPLETON NO.2,231,136
USC00135131,42.0494,-90.7489,232.3,IA,MAQUOKETA 4 W,272,135
USC00135198,42.0647,-92.9244,265.2,IA,MARSHALLTOWN,254,135
USC00135230,43.1631,-93.1953,336.8,IA,MASON CITY,252,144
USC00135493,43.3828,-95.1842,427.3,IA,MILFORD 4 NW,236,146
USC00135769,40.7053,-94.2428,359.7,IA,MT AYR,244,124
USC00135796,40.9486,-91.5647,222.5,IA,MT PLEASANT 1 SSW,265,126
USC00135837,41.4075,-91.0725,167.3,IA,MUSCATINE,269,130
USC00135952,43.0453,-92.3122,349.9,IA,NEW HAMPTON,259,143
USC00135992,41.7117,-93.0297,292.6,IA,NEWTON,253,132
USC00136103,43.4386,-93.2253,362.7,IA,NORTHWOOD,252,146
USC00136243,42.0697,-96.1258,323.1,IA,ONAWA 3NW,228,135
USC00136305,43.2794,-92.8106,356.6,IA,OSAGE,255,145
USC00136327,41.3214,-92.6467,253,IA,OSKALOOSA,256,129
USC00136566,41.8394,-94.1106,294.1,IA,PERRY,245,133
USC00136719,42.7292,-94.6614,369.4,IA,POCAHONTAS,240,140
USC00136800,43.0864,-95.6292,463.3,IA,PRIMGHAR,232,143
USC00136940,41.0036,-95.2419,317,IA,RED OAK,236,127
USC00137147,43.43,-96.1686,411.5,IA,ROCK RAPIDS,228,146
USC00137161,42.3969,-94.6292,364.2,IA,ROCKWELL CITY,240,138
USC00137312,42.4194,-94.9761,368.8,IA,SAC CITY,238,138
USC00137386,43.1792,-95.6603,472.7,IA,SANBORN,232,144
USC00137594,43.1808,-95.8528,432.8,IA,SHELDON,231,144
USC00137613,40.7672,-95.38,297.2,IA,SHENANDOAH,234,125
USC00137664,43.4403,-95.7225,487.1,IA,SIBLEY 3 NE,232,146
USC00137669,40.7453,-95.6422,341.4,IA,SIDNEY,232,124
USC00137678,41.3328,-92.1975,243.8,IA,SIGOURNEY,260,129
USC00137700,43.0558,-96.1525,414.5,IA,SIOUX CTR 2 SE,228,143
USC00137726,42.8931,-95.0653,432.8,IA,SIOUX RAPIDS 4 E,237,142
USC00137844,43.1653,-95.1467,404.2,IA,SPENCER 1 N,236,144
USC00137979,42.6347,-95.1694,434.3,IA,STORM LAKE 2 E,236,140
USC00138266,41.7797,-91.1269,249.9,IA,TIPTON,268,133
USC00138296,42.0356,-92.5806,289.3,IA,TOLEDO 3N,257,135
USC00138568,42.1703,-92.0078,259.1,IA,VINTON,261,136
USC00138688,41.2828,-91.7067,210.3,IA,WASHINGTON,264,129
USC00138806,42.4686,-93.7972,356.6,IA,WEBSTER CITY,247,138
USC00139067,41.6403,-91.9783,246.9,IA,WILLIAMSBURG 3SE,262,132
USC00140010,38.9267,-97.2128,356.6,KS,ABILENE,220,110
USC00140365,37.1942,-99.7633,600.5,KS,ASHLAND,199,96
USC00140405,39.5756,-95.1108,288,KS,ATCHISON,237,115
USC00140439,39.7997,-101.042,894.3,KS,ATWOOD,189,117
USC00140682,39.8183,-97.6375,467.9,KS,BELLEVILLE,216,117
USC00141351,38.0325,-96.6797,438.9,KS,CASSODAY 2SW,224,103
USC00141383,38.7978,-99.7231,679.7,KS,CEDAR BLUFF DAM,200,109
USC00141522,37.8131,-100.346,819.9,KS,CIMARRON,195,101
USC00141559,39.3739,-97.1275,367.9,KS,CLAY CTR,220,113
USC00141612,38.9408,-95.3397,299.9,KS,CLINTON LAKE,235,110
USC00141699,39.3925,-101.069,966.2,KS,COLBY 1SW,189,114
USC00141704,37.2706,-99.3272,634.9,KS,COLDWATER,203,97
USC00141740,37.1764,-94.8397,275.8,KS,COLUMBUS,239,96
USC00141858,38.3703,-96.5483,371.9,KS,COTTONWOOD FALLS,225,105
USC00141867,38.6758,-96.5097,402.3,KS,COUNCIL GROVE LAKE,225,108
USC00142432,37.0058,-101.887,1097,KS,ELKHART,182,95
USC00142548,38.4294,-96.2189,371.9,KS,EMPORIA 3 NW,228,106
USC00142773,38.2422,-96.9242,393.2,KS,FLORENCE,222,104
USC00142835,37.8428,-94.7086,257.6,KS,FT SCOTT,240,101
USC00142980,37.9931,-100.812,874.2,KS,GARDEN CITY EXP STN,191,102
USC00143074,37.5081,-94.8392,300.2,KS,GIRARD,239,99
USC00143218,38.3758,-98.7803,566.9,KS,GREAT BEND,207,106
USC00143527,38.8586,-99.3358,612.6,KS,HAYS 1 S,203,109
USC00143554,38.6003,-100.62,868.7,KS,HEALY,193,107
USC00143594,38.6656,-96.9494,410,KS,HERINGTON,222,108
USC00143822,37.4603,-96.2869,313.9,KS,HOWARD 1W,227,98
USC00143837,39.3533,-100.44,824.8,KS,HOXIE,194,113
USC00143847,38.1042,-98.6592,569.1,KS,HUDSON,208,103
USC00143930,37.9311,-98.0297,478.5,KS,HUTCHINSON 10 SW,213,102
USC00143954,37.2364,-95.7003,245.4,KS,INDEPENDENCE,232,96
USC00143984,37.9233,-95.4242,290.8,KS,IOLA 1 W,234,102
USC00144178,38.6078,-97.9597,454.8,KS,KANOPOLIS LAKE,214,107
USC00144464,37.9411,-101.249,913.8,KS,LAKIN,188,102
USC00144695,37.0222,-100.929,863.8,KS,LIBERAL,190,95
USC00144857,39.9,-98.0256,488.3,KS,LOVEWELL DAM,213,118
USC00144972,39.1972,-96.5814,324.6,KS,MANHATTAN,225,112
USC00145039,38.3778,-97.0753,417.3,KS,MARION RSVR,221,106
USC00145063,39.8383,-96.6364,358.1,KS,MARYSVILLE,224,117
USC00145306,39.0744,-96.8983,368.8,KS,MILFORD LAKE,222,111
USC00145528,38.1433,-94.8233,256,KS,MOUND CITY,239,104
USC00145536,37.1872,-95.4508,243.8,KS,MOUND VALLEY 3 WSW,234,96
USC00145744,38.0344,-97.3431,438.9,KS,NEWTON,219,103
USC00145856,39.7411,-99.8361,719.3,KS,NORTON 9SSE,199,116
USC00145888,39.1131,-100.945,944.9,KS,OAKLEY 4W,190,111
USC00145972,38.8875,-94.7603,321.6,KS,OLATHE 3E,239,110
USC00146100,39.2419,-95.2725,338,KS,OSKALOOSA 4 NE,235,112
USC00146128,38.6133,-95.2808,280.1,KS,OTTAWA,235,107
USC00146209,38.5911,-94.8778,262.1,KS,PAOLA,238,107
USC00146242,37.3678,-95.2892,277.4,KS,PARSONS 2 NW,235,97
USC00146333,39.1172,-95.4097,291.7,KS,PERRY LAKE,234,111
USC00146637,39.0664,-100.239,816.3,KS,QUINTER,196,111
USC00146808,37.2633,-101.789,1032.4,KS,RICHFIELD,183,97
USC00147093,39.7675,-101.807,1024.7,KS,SAINT FRANCIS,183,117
USC00147305,37.1317,-96.1861,274.3,KS,SEDAN,228,96
USC00147397,38.8961,-101.751,1051.6,KS,SHARON SPRINGS,183,110
USC00147542,39.7772,-98.7783,542.5,KS,SMITH CTR,207,117
USC00147796,38.2144,-98.2078,498.7,KS,STERLING,212,104
USC00148038,37.9928,-101.742,1008.3,KS,SYRACUSE 1NE,184,102
USC00148235,38.4661,-101.776,1108.3,KS,TRIBUNE 1W,183,106
USC00148250,39.8283,-95.0881,317,KS,TROY 3N,237,117
USC00148259,39.2475,-96.5994,322.2,KS,TUTTLE CREEK LAKE,225,112
USC00148287,37.5983,-101.291,932.7,KS,ULYSSES 3NE,187,99
USC00148495,39.0297,-99.8831,749.8,KS,WAKEENEY,198,111
USC00148578,39.8089,-97.055,399.9,KS,WASHINGTON,221,117
USC00148670,37.2778,-97.4097,374.9,KS,WELLINGTON,218,97
USC00148946,38.9667,-98.4889,460.9,KS,WILSON LAKE,210,110
USC00148964,37.2889,-96.9408,376.4,KS,WINFIELD 3NE,222,97
USC00149080,37.8728,-95.7247,329.2,KS,YATES CTR,232,101
USC00150254,38.4536,-82.6131,170.7,KY,ASHLAND,337,106
USC00150381,36.8825,-83.8819,301.8,KY,BARBOURVILLE,326,94
USC00150422,36.8978,-86.1247,189,KY,BARREN RIVER LAKE,309,94
USC00150450,36.8583,-83.3303,354.8,KY,BAXTER,331,93
USC00150940,37.495,-85.1517,201.2,KY,BRADFORDSVILLE,316,98
USC00152791,38.1228,-83.5328,256,KY,CAVE RUN LAKE,329,103
USC00153430,37.2592,-85.5022,179.8,KY,GREENSBURG,313,97
USC00153929,37.5317,-85.735,240.2,KY,HODGENVILLE LINCOLN P,312,99
USC00154703,37.5108,-86.2892,189,KY,LEITCHFIELD 2 N,307,99
USC00155524,36.8667,-84.8275,298.4,KY,MONTICELLO 3 NE,319,93
USC00155648,37.3542,-84.3369,353.6,KY,MT VERNON,323,97
USC00155834,37.2792,-86.2492,176.8,KY,NOLIN RIVER LAKE,308,97
USC00156580,37.1244,-87.8672,151.5,KY,PRINCETON 1 SE,295,95
USC00156988,37.6178,-86.5044,170.7,KY,ROUGH RIVER LAKE,305,99
USC00157215,36.7458,-86.2258,235.9,KY,SCOTTSVILLE,308,92
USC00157677,36.6736,-84.4792,371.9,KY,STEARNS 2S,322,92
USC00160098,31.3206,-92.4611,26.5,LA,ALEXANDRIA,258,49
USC00160205,30.7094,-90.525,51.8,LA,AMITE,273,44
USC00160349,32.1633,-93.1331,73.2,LA,ASHLAND,252,56
USC00160537,32.7692,-92.0056,45.7,LA,BASTROP,261,61
USC00161232,31.3944,-92.7164,33.5,LA,BOYCE 3 WNW,256,50
USC00161287,30.9594,-92.1786,24.4,LA,BUNKIE,260,46
USC00161411,32.5133,-92.3486,54.9,LA,CALHOUN RSCH STN,259,59
USC00161565,30.1981,-91.1256,7.6,LA,CARVILLE 2 SW,268,40
USC00161899,30.8178,-90.9733,61,LA,CLINTON 5 SE,270,45
USC00162212,30.2408,-92.3478,7.6,LA,CROWLEY 2 NE,259,40
USC00162367,30.8428,-93.2869,57.9,LA,DE RIDDER,251,45
USC00162534,30.0719,-91.0278,9.1,LA,DONALDSONVILLE 4 SW,269,39
USC00163433,29.4631,-90.3072,1.5,LA,GALLIANO,275,34
USC00163800,30.4192,-92.0439,16.8,LA,GRAND COTEAU,261,42
USC00164030,30.5031,-90.3772,10.7,LA,HAMMOND 5 E,274,43
USC00164674,29.9592,-91.7108,6.1,LA,JEANERETTE 5 NW,264,38
USC00164700,30.2003,-92.6642,7.6,LA,JENNINGS,256,40
USC00165090,32.8067,-91.173,30.5,LA,LAKE PROVIDENCE,268,61
USC00165620,30.3644,-91.1672,6.4,LA,LSU BEN-HUR FARM,268,41
USC00165630,31.1783,-92.4108,21.3,LA,LSU DEAN LEE RSCH STN,258,48
USC00166244,32.6053,-93.2947,56.4,LA,MINDEN,251,59
USC00166314,32.5342,-92.0669,21.3,LA,MONROE ULM,261,59
USC00166394,29.6833,-91.1761,1.5,LA,MORGAN CITY,268,36
USC00166582,31.7722,-93.0956,39.6,LA,NATCHITOCHES,253,53
USC00166686,30.7267,-91.3672,13.7,LA,NEW ROADS 5 NE,267,44
USC00167738,32.4219,-93.6381,47.2,LA,RED RIVER RSCH STN,248,58
USC00167767,30.0564,-90.5803,4.6,LA,RESERVE,273,39
USC00167932,29.7286,-92.8181,1.2,LA,ROCKEFELLER WL REFUGE,255,36
USC00168046,30.9461,-93.2789,72.5,LA,ROSEPINE RSCH STN,251,46
USC00168163,31.9497,-91.2336,23.8,LA,ST JOSEPH 3 N,268,54
USC00168539,30.265,-89.7697,3,LA,SLIDELL,279,41
USC00168923,32.3994,-91.1842,25.9,LA,TALLULAH,268,58
USC00169806,32.0997,-91.7022,24.4,LA,WINNSBORO 5 SSE,264,55
USC00170100,44.3739,-68.2592,143.3,ME,ACADIA NP,451,153
USC00170480,44.4394,-68.9892,9.1,ME,BELFAST,445,154
USC00170814,45.6603,-69.812,323.1,ME,BRASSUA DAM,439,164
USC00170833,46.4283,-67.8442,128,ME,BRIDGEWATER,455,170
USC00170844,44.0697,-70.7467,170.7,ME,BRIDGTON 3 NW,432,151
USC00171628,44.9197,-69.2417,90.5,ME,CORINNA,444,158
USC00172238,43.8786,-70.7539,160.9,ME,EAST HIRAM,431,150
USC00172765,44.6889,-70.1567,128,ME,FARMINGTON,436,156
USC00172878,47.2386,-68.6136,185.9,ME,FT KENT,449,176
USC00173046,44.2203,-69.7889,42.7,ME,GARDINER,439,152
USC00174086,45.6233,-70.255,362.7,ME,JACKMAN,435,163
USC00174781,45.2219,-70.1983,353.6,ME,LONG FALLS DAM,436,160
USC00174927,44.7983,-69.8878,79.2,ME,MADISON,438,157
USC00175304,45.6503,-68.705,109.7,ME,MILLINOCKET,448,164
USC00175675,44.0461,-69.5367,57.9,ME,NEWCASTLE,441,151
USC00176937,46.6539,-68.0089,182.6,ME,PRESQUE ISLE,453,172
USC00177037,44.9892,-70.6719,466.3,ME,RANGELEY,432,158
USC00177325,44.5308,-70.5372,192,ME,RUMFORD 1 SSE,433,155
USC00177479,43.4569,-70.7803,85.3,ME,SANFORD 2 NNW,431,146
USC00178965,47.1664,-67.9397,139,ME,VAN BUREN 2,454,176
USC00179151,44.5272,-69.6544,22.3,ME,WATERVILLE TRTMT PLT,440,155
USC00179314,43.6878,-70.6128,67.1,ME,WEST BUXTON 2 NNW,433,148
USC00179593,44.1925,-69.1461,115.8,ME,WEST ROCKPORT 1 NNW,444,152
USC00179891,45.1569,-67.4044,42.7,ME,WOODLAND,458,160
USC00180700,39.0303,-76.9314,44.2,MD,BELTSVILLE,382,111
USC00181530,39.6453,-77.4831,490.7,MD,CATOCTIN MTN PARK,378,116
USC00181750,39.2167,-76.0519,12.2,MD,CHESTERTOWN,389,112
USC00182282,39.6419,-78.7561,222.5,MD,CUMBERLAND 2,367,116
USC00182325,38.9344,-77.1022,45.7,MD,DALECARLIA RSVR,381,110
USC00182906,39.6811,-77.2914,122.8,MD,EMMITSBURG 2 SE,379,116
USC00183415,39.66,-78.9358,661.4,MD,FROSTBURG 2,366,116
USC00185865,38.4617,-76.6992,30.5,MD,MECHANICSVILLE 5 NE,384,106
USC00186350,38.9133,-76.97,15.2,MD,NATL ARBORETUM DC,382,110
USC00186620,39.4133,-79.4,737.6,MD,OAKLAND 1 SE,362,114
USC00187806,38.7144,-76.1897,3,MD,ROYAL OAK 2 SSW,388,109
USC00188000,38.365,-75.5892,3,MD,SALISBURY,393,105
USC00188065,39.5103,-79.14,455.7,MD,SAVAGE RIVER DAM,364,115
USC00188380,38.2364,-75.3789,9.1,MD,SNOW HILL 4 N,394,104
USC00189140,38.4875,-75.8211,3,MD,VIENNA,391,106
USC00190120,42.3861,-72.5375,43.3,MA,AMHERST,417,138
USC00190860,42.0478,-71.005,24.4,MA,BROCKTON,429,135
USC00191386,41.6569,-69.9589,12.2,MA,CHATHAM,437,132
USC00192107,42.1103,-72.1269,213.4,MA,EAST BRIMFIELD LAKE,420,135
USC00192501,41.3853,-70.5181,9.1,MA,EDGARTOWN,432,130
USC00193505,42.7594,-71.0603,6.1,MA,HAVERHILL,429,141
USC00193624,42.2269,-70.9125,10.7,MA,HINGHAM,430,136
USC00194105,42.6992,-71.1658,15.2,MA,LAWRENCE,428,140
USC00194580,42.4292,-71.4425,62.5,MA,MAYNARD 2,426,138
USC00194744,42.5947,-71.0208,27.4,MA,MIDDLETON,429,139
USC00196486,41.9819,-70.6961,13.7,MA,PLYMOUTH-KINGSTON,432,134
USC00196783,42.5242,-71.1264,27.4,MA,READING,428,139
USC00196938,41.785,-70.9175,19.8,MA,ROCHESTER,430,133
USC00198757,42.1608,-71.2461,50.3,MA,WALPOLE 2,428,136
USC00200032,41.9164,-84.0158,231.6,MI,ADRIAN 2 NNE,325,134
USC00200146,43.3864,-84.6492,224,MI,ALMA,320,146
USC00200230,42.2947,-83.7108,274.3,MI,ANN ARBOR U OF MICH,328,137
USC00200417,43.8081,-82.9939,217.9,MI,BAD AXE,334,149
USC00200718,46.5869,-89.5475,396.2,MI,BERGLAND DAM,281,171
USC00200779,43.7072,-85.4822,283.5,MI,BIG RAPIDS WTR WKS,314,148
USC00200925,45.1672,-84.9139,221.9,MI,BOYNE FALLS,318,160
USC00201476,44.5503,-84.8258,274.9,MI,CHARLOTTE,319,155
USC00201675,41.9622,-84.9925,299.9,MI,COLDWATER ST SCHOOL,318,134
USC00201896,45.6414,-85.0142,219.8,MI,CROSS VILLAGE 1E,318,164
USC00202015,42.3194,-83.2378,184.4,MI,DEARBORN,332,137
USC00202094,45.9983,-83.9014,181.4,MI,DETOUR VILLAGE,325,167
USC00202250,41.9856,-86.1319,225.6,MI,DOWAGIAC 1 W,308,134
USC00202381,45.1519,-85.1322,178.3,MI,EAST JORDAN,316,160
USC00202423,44.2839,-83.5036,178.6,MI,EAST TAWAS,329,153
USC00202445,42.0147,-86.2408,265.2,MI,EAU CLAIRE 4 NE,308,135
USC00202631,43.6156,-83.845,179.2,MI,ESSEXVILLE,327,147
USC00202984,44.6481,-86.21,289,MI,FRANKFORT 2NE,308,155
USC00203096,45.0303,-84.6781,412.4,MI,GAYLORD,320,159
USC00203391,44.6542,-84.6994,346.3,MI,GRAYLING,320,156
USC00203477,42.4078,-82.8892,186.8,MI,GROSSE POINTE FARMS,334,138
USC00203529,44.4633,-83.7217,221.9,MI,HALE LOUD DAM,328,154
USC00203585,43.8322,-82.6428,181.4,MI,HARBOR BEACH 1 SSE,336,149
USC00203661,42.6422,-85.2875,249.9,MI,HASTINGS,315,140
USC00204078,42.9531,-85.0778,245.4,MI,IONIA 2SSW,317,142
USC00204090,45.7858,-88.0842,326.4,MI,IRON MT KINGSFORD WWTP,293,165
USC00204104,46.4656,-90.1892,435.9,MI,IRONWOOD,276,170
USC00204502,44.3089,-85.205,374.9,MI,LAKE CITY EXP FARM,316,153
USC00204655,43.0608,-83.3075,249.9,MI,LAPEER WWTP,331,143
USC00205065,44.2114,-86.2939,204.2,MI,MANISTEE 3SE,307,152
USC00205073,45.9511,-86.2514,182.9,MI,MANISTIQUE WWTP,307,166
USC00205434,43.6089,-84.2011,195.1,MI,MIDLAND,324,147
USC00205567,43.4614,-86.4175,198.1,MI,MONTAGUE 4 NW,307,146
USC00206184,45.4108,-84.2233,227.1,MI,ONAWAY 4N,324,162
USC00206220,46.8342,-89.2075,240.8,MI,ONTONAGON 6 SE,284,173
USC00206300,43.0161,-84.18,222.5,MI,OWOSSO WWTP,324,143
USC00206507,45.3725,-84.9767,182.6,MI,PETOSKEY,318,161
USC00207094,45.4169,-83.8158,187.5,MI,ROGERS CITY,326,162
USC00207274,45.8489,-84.7228,181.4,MI,ST IGNACE MACKINAC BR,319,166
USC00207280,43.0114,-84.5542,226.5,MI,SAINT JOHNS,321,143
USC00207690,42.4014,-86.2833,189,MI,SOUTH HAVEN,308,138
USC00207812,46.0556,-88.6275,442,MI,STAMBAUGH 2SSE,288,167
USC00207820,43.9472,-84.0378,196.6,MI,STANDISH 5SW,325,150
USC00208184,41.9297,-85.6383,246.9,MI,THREE RIVERS,312,134
USC00208417,45.1703,-84.4397,275.8,MI,VANDERBILT 11ENE,322,160
USC00208800,44.2542,-84.2011,269.7,MI,WEST BRANCH 3SE,324,153
USC00208920,46.7531,-84.9789,184.4,MI,WHITEFISH POINT,317,172
USC00210075,43.6064,-93.3019,374.9,MN,ALBERT LEA 3 SE,251,147
USC00210252,48.3311,-96.8253,258.2,MN,ARGYLE,223,185
USC00210287,45.3783,-96.1542,333.1,MN,ARTICHOKE LAKE,228,162
USC00210355,43.6542,-92.9739,365.5,MN,AUSTIN WWT FAC,254,148
USC00210667,45.3167,-95.6167,317,MN,BENSON,233,161
USC00210939,46.3433,-94.2086,359.7,MN,BRAINERD,244,169
USC00211198,43.6308,-91.5028,355.4,MN,CALEDONIA,265,148
USC00211263,44.7183,-96.2697,378.9,MN,CANBY,227,156
USC00211374,47.3847,-94.6147,395,MN,CASS LAKE,241,178
USC00211630,46.7047,-92.5253,385.6,MN,CLOQUET,257,172
USC00211691,45.5872,-94.4047,373.4,MN,COLLEGEVILLE ST JOHN,242,163
USC00211891,47.8014,-96.6028,270.7,MN,CROOKSTON NW EXP STN,225,181
USC00212698,43.6447,-94.4656,361.8,MN,FAIRMONT,242,148
USC00212721,44.3075,-93.265,286.5,MN,FARIBAULT,251,153
USC00212737,44.6697,-93.17,298.7,MN,FARMINGTON 3 NW,252,156
USC00212881,45.3397,-92.9125,292.6,MN,FOREST LAKE 5NE,254,161
USC00213076,44.5564,-94.2206,310.3,MN,GAYLORD,244,155
USC00213104,47.0792,-96.7758,269.7,MN,GEORGETOWN 1 E,223,175
USC00213174,45.6583,-95.4392,365.2,MN,GLENWOOD 2 WNW,234,164
USC00213282,47.7517,-90.3578,186.5,MN,GRAND MARAIS,275,181
USC00213290,43.7047,-92.5644,411.5,MN,GRAND MEADOW,257,148
USC00213303,47.2436,-93.4975,399.3,MN,GRAND RPDS FOREST LAB,250,176
USC00213411,46.4119,-94.3608,370.3,MN,GULL LAKE DAM,243,170
USC00213962,44.9089,-94.3675,333.8,MN,HUTCHINSON 1 N,243,158
USC00214106,47.2256,-95.1919,454.2,MN,ITASCA UNIV OF MINN,236,176
USC00214534,43.9981,-95.9572,502.9,MN,LAKE WILSON,230,150
USC00214546,44.2394,-95.3153,348.7,MN,LAMBERTON SW EXP STN,235,152
USC00214652,47.2467,-94.2228,396.8,MN,LEECH LAKE,244,176
USC00214778,45.1278,-94.5347,345,MN,LITCHFIELD,241,160
USC00214793,45.9933,-94.3508,341.4,MN,LITTLE FALLS 1 N,243,166
USC00214861,45.9647,-94.8892,408.4,MN,LONG PRAIRIE,238,166
USC00214994,45.0025,-96.1661,329.2,MN,MADISON SEWAGE PLT,228,159
USC00215204,44.4706,-95.7908,351.1,MN,MARSHALL,231,154
USC00215392,45.7533,-93.6617,324.3,MN,MILACA,248,165
USC00215400,45.1219,-95.9269,310.9,MN,MILAN 1 NW,230,159
USC00215598,46.4378,-92.7578,338.3,MN,MOOSE LAKE 1 SSE,255,170
USC00215638,45.5903,-95.8747,347.5,MN,MORRIS WC EXP STN,231,163
USC00215842,45.305,-94.9392,381,MN,NEW LONDON,238,161
USC00215887,44.3006,-94.4897,271.3,MN,NEW ULM 2 SE,242,153
USC00216152,44.7628,-94.9297,335.3,MN,OLIVIA 3E,238,157
USC00216287,44.0981,-93.2308,350.5,MN,OWATONNA,252,151
USC00216547,46.6694,-94.1089,381,MN,PINE RIVER DAM,245,172
USC00216565,44.0139,-96.3258,519.7,MN,PIPESTONE,227,151
USC00216654,43.6725,-92.0747,283.5,MN,PRESTON,261,148
USC00216787,47.8881,-96.2658,332.2,MN,RED LAKE FALLS,227,182
USC00217107,44.7178,-93.0975,289.6,MN,ROSEMOUNT AGR EXP STN,253,156
USC00217326,43.9903,-94.6122,335.3,MN,ST JAMES FILT PLT,241,150
USC00217405,44.3222,-93.9656,259.1,MN,ST PETER,246,153
USC00217502,45.5461,-93.7572,307.8,MN,SANTIAGO 3 E,247,163
USC00217907,44.2469,-94.9864,324.9,MN,SPRINGFIELD 1 NW,238,152
USC00218311,47.7817,-92.2783,435.9,MN,TOWER 2S,259,181
USC00218323,44.2394,-95.6308,427.6,MN,TRACY,232,152
USC00218419,47.0258,-91.6653,190.5,MN,TWO HARBORS,264,175
USC00218579,46.3939,-95.3939,418.2,MN,WADENA 3 S,234,170
USC00218679,48.8947,-95.33,327.1,MN,WARROAD,235,190
USC00218692,44.0708,-93.5264,351.4,MN,WASECA EXP STN,249,151
USC00218907,45.8081,-96.5042,310.3,MN,WHEATON,225,165
USC00219004,45.1078,-95.0358,335.3,MN,WILLMAR WWTP,237,159
USC00219033,43.8575,-95.1167,419.1,MN,WINDOM,237,149
USC00219046,43.7639,-94.1661,338.3,MN,WINNEBAGO,244,149
USC00219170,43.645,-95.5803,478.5,MN,WORTHINGTON 2 NNE,233,148
USC00219173,46.6803,-92.9542,405.4,MN,WRIGHT 3 E,254,172
USC00219249,44.2992,-92.6661,300.2,MN,ZUMBROTA,256,153
USC00220021,33.83,-88.5214,60.4,MS,ABERDEEN,289,69
USC00220660,33.1772,-90.4919,35.1,MS,BELZONI,274,64
USC00221094,31.5447,-90.4581,132.6,MS,BROOKHAVEN CITY,274,51
USC00221314,33.8586,-89.3158,77.7,MS,CALHOUN CITY,283,69
USC00221707,34.1864,-90.5572,52.7,MS,CLARKSDALE,273,72
USC00221852,31.6419,-89.5572,88.4,MS,COLLINS,281,52
USC00221962,34.8792,-88.6178,117.3,MS,CORINTH 7 SW,289,78
USC00223107,32.36,-89.4208,137.2,MS,FOREST,282,57
USC00223208,34.2614,-88.4569,106.7,MS,FULTON 3 W,290,73
USC00223645,33.7608,-89.8136,72.2,MS,GRENADA,279,69
USC00223887,31.2547,-89.3392,117.3,MS,HATTIESBURG 5SW,283,49
USC00223920,31.8328,-90.4542,182.9,MS,HAZLEHURST 5 SW,274,53
USC00224001,34.6189,-89.1911,121.9,MS,HICKORY FLAT,284,75
USC00224173,34.8219,-89.4347,147.2,MS,HOLLY SPRINGS 4 N,282,77
USC00224455,34.7633,-88.1958,182.9,MS,IUKA,292,77
USC00224939,31.6756,-89.1236,68.6,MS,LAUREL,285,52
USC00226009,33.4517,-90.5097,35.7,MS,MOORHEAD,273,66
USC00226177,31.5889,-91.3408,59.4,MS,NATCHEZ,267,51
USC00226308,32.3378,-89.0817,106.4,MS,NEWTON EXP STN,285,57
USC00226894,32.7692,-89.1303,125.9,MS,PHILADELPHIA 1 WSW,284,61
USC00227111,34.1381,-88.9983,123.4,MS,PONTOTOC EXP STN,286,72
USC00227132,31.985,-90.9719,36.6,MS,PORT GIBSON 1 NE,270,54
USC00227560,32.8978,-90.8853,32,MS,ROLLING FORK,270,62
USC00227840,30.6264,-89.055,69.8,MS,SAUCIER EXP FOREST,285,44
USC00228374,33.4692,-88.7822,56.4,MS,STATE UNIV,287,66
USC00228445,33.4311,-90.9108,38.7,MS,STONEVILLE EXP STA,270,66
USC00228998,34.7281,-90.3683,62.8,MS,TUNICA 2 N,275,76
USC00229079,34.3725,-89.5308,124.4,MS,UNIVERSITY,281,73
USC00229400,34.1583,-89.6311,94.5,MS,WATER VALLEY,280,72
USC00229426,30.2947,-89.3831,2.4,MS,WAVELAND,282,41
USC00229743,33.4847,-89.6244,119.5,MS,WINONA 5 E,281,66
USC00230143,39.8914,-94.36,296.9,MO,AMITY 4 NE,243,118
USC00230164,36.6519,-94.4386,320,MO,ANDERSON,242,92
USC00230204,38.1869,-94.0281,259.7,MO,APPLETON CITY,245,104
USC00230789,37.6167,-93.3911,315.2,MO,BOLIVAR 1 NE,250,99
USC00230980,39.765,-93.0594,233.8,MO,BROOKFIELD,253,117
USC00231037,39.4247,-93.1331,201.8,MO,BRUNSWICK,252,114
USC00231145,38.2611,-94.405,240.8,MO,BUTLER 4W,242,105
USC00231189,38.6278,-92.5545,267.9,MO,CALIFORNIA,257,108
USC00231340,39.3594,-93.4886,214.9,MO,CARROLLTON,250,113
USC00231711,38.395,-93.7711,234.7,MO,CLINTON,247,106
USC00232591,39.1506,-90.7847,137.2,MO,ELSBERRY 1 S,271,112
USC00233079,38.8472,-91.9414,239,MO,FULTON,262,109
USC00233601,39.7233,-91.3719,217,MO,HANNIBAL WTR WKS,267,116
USC00234271,38.5853,-92.1825,204.2,MO,JEFFERSON CITY WTP,260,107
USC00234544,40.2058,-92.5747,295.7,MO,KIRKSVILLE,257,120
USC00234694,38.2044,-92.6208,180.4,MO,LAKESIDE,257,104
USC00234705,37.4933,-94.3147,303.6,MO,LAMAR 2W,243,98
USC00234825,37.685,-92.6936,389.8,MO,LEBANON 2W,256,100
USC00234850,38.8803,-94.3358,304.8,MO,LEES SUMMIT REED WR,243,110
USC00234904,39.1828,-93.855,251.5,MO,LEXINGTON 3E,247,112
USC00234919,37.5544,-91.8831,359.7,MO,LICKING 4N,262,99
USC00235027,37.3908,-93.9489,326.1,MO,LOCKWOOD,246,98
USC00235253,37.3036,-89.9664,118.9,MO,MARBLE HILL,278,97
USC00235307,37.3339,-92.9097,454.2,MO,MARSHFIELD,254,97
USC00235340,40.3458,-94.8342,300.2,MO,MARYVILLE 2E,239,121
USC00235671,39.4194,-92.4369,262.1,MO,MOBERLY,258,114
USC00235704,36.8619,-93.9619,420.6,MO,MONETT 4SW,246,93
USC00235834,37.1542,-92.2617,442,MO,MTN GROVE 2 N,259,96
USC00235862,37.0733,-93.8789,362.7,MO,MT VERNON M U SW CTR,246,95
USC00235987,37.8394,-94.3736,249.9,MO,NEVADA WTP,243,101
USC00236012,39.0172,-92.7558,195.4,MO,NEW FRANKLIN 1W,255,111
USC00236460,36.6597,-93.1261,213.4,MO,OZARK BEACH,252,92
USC00236791,36.7578,-90.4056,112.8,MO,POPLAR BLUFF,274,93
USC00236804,36.4136,-89.6997,85.3,MO,PORTAGEVILLE,280,90
USC00237263,37.9572,-91.7758,355.7,MO,ROLLA UNI OF MISSOURI,263,102
USC00237397,38.8147,-90.5169,142.3,MO,ST CHARLES ELM POINT,273,109
USC00237398,38.6856,-90.5231,137.2,MO,ST CHARLES 7 SSW,273,108
USC00237506,37.6331,-91.5364,365.8,MO,SALEM,265,100
USC00237514,39.4247,-92.8106,222.5,MO,SALISBURY,255,114
USC00237578,39.6361,-91.2494,143.9,MO,SAVERTON L&D 22,268,116
USC00237632,38.6753,-93.2228,237.7,MO,SEDALIA WTP,252,108
USC00238051,39.9714,-91.8872,210.3,MO,STEFFENVILLE,262,118
USC00238223,38.9664,-93.4194,205.7,MO,SWEET SPRINGS,250,110
USC00238515,38.4444,-91.0042,164.6,MO,UNION,269,106
USC00238603,38.44,-92.8519,300.2,MO,VERSAILLES 2W,255,106
USC00238777,37.7822,-92.2689,275.8,MO,WAYNESVILLE 5 W,259,101
USC00240110,45.0708,-112.058,1783.1,MT,ALDER 17 S,101,159
USC00240199,46.1314,-112.957,1609.3,MT,ANACONDA,94,168
USC00240375,46.6456,-112.266,1478.6,MT,AUSTIN 1 W,99,172
USC00240743,45.0403,-105.485,1096.4,MT,BIDDLE 8 SW,154,159
USC00240755,47.875,-114.033,887,MT,BIGFORK 13 S,85,182
USC00240780,45.8328,-109.95,1249.7,MT,BIG TIMBER,118,165
USC00240802,45.7717,-108.481,944,MT,BILLINGS WTP,130,165
USC00241008,46.2314,-112.114,1494.7,MT,BOULDER,101,168
USC00241044,45.6622,-111.045,1497.5,MT,BOZEMAN MONTANA ST U,109,164
USC00241047,45.675,-111.155,1455.4,MT,BOZEMAN 6 W EXP FARM,108,164
USC00241084,45.8161,-106.231,844.3,MT,BRANDENBERG,148,165
USC00241088,48.5475,-105.271,804.1,MT,BREDETTE,155,187
USC00241127,45.4442,-105.407,924.2,MT,BROADUS,154,162
USC00241169,47.2875,-105.83,801.6,MT,BROCKWAY 3 WSW,151,177
USC00241297,45.5397,-106.96,1045.5,MT,BUSBY,142,163
USC00241518,46.7447,-104.309,957.1,MT,CARLYLE 13 NW,163,172
USC00241525,47.7919,-111.219,1051.6,MT,CARTER 14 W,108,181
USC00241552,47.2194,-111.71,1024.1,MT,CASCADE 5 S,104,176
USC00241557,46.9956,-111.577,1402.1,MT,CASCADE 20 SSE,105,174
USC00241692,48.5153,-110.971,954.6,MT,CHESTER,110,187
USC00241722,48.5883,-109.226,737.6,MT,CHINOOK,124,187
USC00241737,47.8206,-112.192,1172,MT,CHOTEAU,100,181
USC00241758,47.4122,-105.595,754.4,MT,CIRCLE,153,178
USC00241875,47.0567,-106.617,831.2,MT,COHAGEN,145,175
USC00241905,45.8944,-106.634,980.8,MT,COLSTRIP,144,166
USC00241938,45.6444,-109.268,1097.9,MT,COLUMBUS,123,164
USC00241984,47.9764,-107.549,752.9,MT,CONTENT 3 SSE,137,182
USC00241995,45.0189,-109.955,2280.8,MT,COOKE CITY 2 W,118,159
USC00242104,48.1889,-114.134,896.1,MT,CRESTON,84,184
USC00242347,47.3181,-109.937,1100.3,MT,DENTON,118,177
USC00242409,45.2128,-112.645,1593.5,MT,DILLION U OF MONTANA WESTERN,96,160
USC00242689,45.8903,-104.546,1043.9,MT,EKALAKA,161,166
USC00242793,45.3394,-111.711,1509.7,MT,ENNIS,104,161
USC00242827,48.8978,-115.064,771.8,MT,EUREKA RS,77,190
USC00242857,47.6153,-111.985,1214,MT,FAIRFIELD,102,179
USC00243013,46.8511,-108.313,954.9,MT,FLATWILLOW 4 ENE,131,173
USC00243098,46.2719,-106.674,766.6,MT,FORSYTH,144,169
USC00243110,48.4983,-109.797,796.4,MT,FT ASSINNIBOINE,119,186
USC00243113,47.8306,-110.661,807.4,MT,FT BENTON,112,181
USC00243176,48.0119,-106.412,630.9,MT,FT PECK PWR PLT,146,183
USC00243489,47.6017,-112.754,1399,MT,GIBSON DAM,95,179
USC00243530,48.5653,-110.302,859.5,MT,GILDFORD,115,187
USC00243581,47.1064,-104.718,632.8,MT,GLENDIVE,160,175
USC00243617,48.9761,-111.399,1066.2,MT,GOLDBUTTE 7 N,106,190
USC00243727,47.0258,-108.803,1063.8,MT,GRASS RANGE,127,175
USC00243915,45.7317,-107.609,886.4,MT,HARDIN,137,164
USC00243929,48.5353,-108.796,722.7,MT,HARLEM,127,187
USC00244038,44.8667,-111.339,1977.8,MT,HEBGEN DAM,107,157
USC00244084,48.08,-116.001,682.8,MT,HERON 2 NW,69,183
USC00244241,46.9914,-112.012,1062.8,MT,HOLTER DAM,101,174
USC00244328,48.3425,-114.022,963.2,MT,HUNGRY HORSE DAM,85,185
USC00244345,45.9228,-108.244,924.8,MT,HUNTLEY EXP STN,132,166
USC00244358,46.2942,-107.228,810.8,MT,HYSHAM,140,169
USC00244364,45.9353,-107.137,944.9,MT,HYSHAM 25 SSE,140,166
USC00244386,46.7392,-107.208,851.9,MT,INGOMAR 14 NE,140,172
USC00244506,45.4731,-109.01,1172.9,MT,JOLIET,125,162
USC00244512,48.5617,-110.767,1012.9,MT,JOPLIN,111,187
USC00244545,46.65,-109.48,1585.9,MT,JUDITH GAP 13 E,122,172
USC00244558,48.3042,-114.264,901.3,MT,KALISPELL GLACIER AP,83,185
USC00244954,46.3619,-110.6,1706.9,MT,LENNEP 5 SW,113,169
USC00245015,48.4036,-115.539,638.9,MT,LIBBY 1 NE RS,73,186
USC00245020,47.9733,-115.224,1056.1,MT,LIBBY 32 SSE,76,182
USC00245030,44.6331,-112.593,1913.8,MT,LIMA,97,156
USC00245043,47.4083,-113.713,1316.7,MT,LINDBERGH LAKE,88,178
USC00245080,45.4836,-110.569,1484.4,MT,LIVINGSTON 12 S,113,162
USC00245153,47.9442,-110.531,786.4,MT,LOMA 1 WNW,113,182
USC00245338,48.3939,-107.729,680,MT,MALTA 7 E,136,186
USC00245340,47.8417,-107.956,794,MT,MALTA 35 S,134,181
USC00245387,46.5,-110.338,1463,MT,MARTINSDALE 3 NNW,115,171
USC00245572,48.4828,-104.451,591.9,MT,MEDICINE LAKE 3 SE,162,186
USC00245596,46.6008,-107.869,890,MT,MELSTONE,135,171
USC00245668,46.7614,-104.962,757.1,MT,MILDRED 5 N,158,173
USC00245735,46.8983,-113.968,1042.4,MT,MISSOULA 2 NE,86,174
USC00245754,46.2858,-105.292,755.9,MT,MIZPAH 4 NNW,155,169
USC00245761,47.0575,-109.951,1310.6,MT,MOCCASIN EXP STN,118,175
USC00245870,45.1758,-105.752,981.5,MT,MOORHEAD 9 NE,151,160
USC00245961,45.2436,-109.731,1994.6,MT,MYSTIC LAKE,120,160
USC00246157,45.4856,-111.632,1446.3,MT,NORRIS MADISON PH,104,162
USC00246190,45.435,-109.808,1475.2,MT,NYE 2,119,162
USC00246218,48.5497,-114.574,964.7,MT,OLNEY,81,187
USC00246236,48.9989,-106.38,877.2,MT,OPHEIM 10 N,146,190
USC00246238,48.6956,-106.315,894.9,MT,OPHEIM 12 SSE,147,188
USC00246304,46.8819,-113.056,1318.3,MT,OVANDO 9 SSE,93,174
USC00246601,46.4178,-104.516,847.3,MT,PLEVNA,161,170
USC00246635,47.675,-114.191,917.4,MT,POLSON,84,180
USC00246640,47.6775,-114.242,832.1,MT,POLSON KERR DAM,84,180
USC00246685,46.8814,-113.574,1103.4,MT,POTOMAC,89,174
USC00246691,45.8525,-105.035,853.4,MT,POWDERVILLE 8 NNE,157,165
USC00246893,48.9975,-104.575,714.8,MT,RAYMOND BORDER STN,161,190
USC00246902,47.2972,-110.746,1284.7,MT,RAYNESFORD 2 NNW,112,177
USC00247034,45.5022,-104.448,1010.7,MT,RIDGEWAY 1 S,162,163
USC00247136,46.8203,-106.245,921.7,MT,ROCK SPRINGS,148,173
USC00247214,46.4414,-108.54,973.2,MT,ROUNDUP,129,170
USC00247263,46.5333,-109.344,1353.3,MT,RYEGATE 18 NNW,123,171
USC00247286,47.315,-114.098,888.5,MT,SAINT IGNATIUS,85,177
USC00247382,47.4536,-104.338,602,MT,SAVAGE,163,178
USC00247448,47.2142,-113.52,1249.7,MT,SEELEY LAKE RS,89,176
USC00247560,47.7283,-104.147,588.6,MT,SIDNEY,164,180
USC00247740,45.4183,-105.868,1188.7,MT,SONNETTE 2 WNW,151,162
USC00247864,47.1547,-110.224,1481.3,MT,STANFORD,116,176
USC00247894,46.5136,-114.091,1028.7,MT,STEVENSVILLE,85,171
USC00247964,45.8478,-113.927,1364,MT,SULA 3 ENE,86,165
USC00248021,47.4778,-111.741,1097.3,MT,SUN RIVER 4 S,104,178
USC00248165,46.7939,-105.302,685.2,MT,TERRY,155,173
USC00248169,47.07,-105.495,957.7,MT,TERRY 21 NNW,154,175
USC00248211,47.5933,-115.359,725.4,MT,THOMPSON FALLS PH,75,179
USC00248324,46.3308,-111.538,1170.4,MT,TOWNSEND,105,169
USC00248430,45.5472,-112.326,1409.7,MT,TWIN BRIDGES,99,163
USC00248501,48.3089,-112.251,1161.3,MT,VALIER,99,185
USC00248597,45.2925,-111.948,1759.6,MT,VIRGINIA CITY,102,161
USC00248809,48.5003,-113.985,961.3,MT,WEST GLACIER,86,187
USC00248957,46.9878,-104.157,821.7,MT,WIBAUX 2 E,164,174
USC00249023,46.0306,-110.506,1787.7,MT,WILSALL 8 ENE,113,167
USC00249033,47.5589,-109.376,988.5,MT,WINIFRED,122,179
USC00249067,45.6178,-113.451,1847.1,MT,WISDOM,90,163
USC00249240,45.3128,-107.938,1007.4,MT,YELLOWTAIL DAM,134,161
USC00250030,42.4244,-103.735,1423.4,NE,AGATE 3 E,168,138
USC00250050,42.5522,-99.8556,765,NE,AINSWORTH,199,139
USC00250245,41.5975,-99.8258,794,NE,ANSELMO 2 SE,199,131
USC00250365,41.5697,-101.691,1066.8,NE,ARTHUR,184,131
USC00250375,41.0408,-96.3775,326.1,NE,ASHLAND NO 2,226,127
USC00250420,42.5136,-99.0303,637,NE,ATKINSON 3SW,205,139
USC00250435,40.3706,-95.7469,283.5,NE,AUBURN 5 ESE,232,121
USC00250445,40.8586,-97.9958,544.1,NE,AURORA,214,125
USC00250640,40.1306,-99.8278,658.4,NE,BEAVER CITY,199,120
USC00250760,40.0525,-101.539,922,NE,BENKELMAN,185,119
USC00250865,41.0469,-102.147,1121.1,NE,BIG SPRINGS,180,127
USC00251200,41.4083,-99.675,762,NE,BROKEN BOW 2 W,200,130
USC00251365,42.9131,-98.8511,552,NE,BUTTE,207,142
USC00251450,40.6944,-99.7008,719.9,NE,CANADAY STEAM PLT,200,124
USC00251560,41.1156,-98.0064,516.6,NE,CENTRAL CITY,213,127
USC00251684,40.5208,-98.0536,533.4,NE,CLAY CTR,213,123
USC00251825,41.4639,-97.3278,442,NE,COLUMBUS 3 NE,219,130
USC00251990,42.4603,-97.9047,506,NE,CREIGHTON,214,138
USC00252020,40.6194,-96.9469,437.4,NE,CRETE,222,123
USC00252065,40.2333,-100.829,796.7,NE,CULBERTSON,191,120
USC00252205,41.2492,-97.1328,490.7,NE,DAVID CITY,220,128
USC00252680,42.1717,-100.011,808.9,NE,ELSMERE 9 ENE,197,136
USC00252805,42.2611,-98.3417,563.9,NE,EWING,211,137
USC00252820,40.0739,-97.1669,411.5,NE,FAIRBURY 5S,220,119
USC00252840,40.6422,-97.5928,499.9,NE,FAIRMONT,217,124
USC00253050,41.43,-96.4669,359.7,NE,FREMONT,226,130
USC00253175,40.5314,-97.5964,496.8,NE,GENEVA,217,123
USC00253185,41.4514,-97.7644,484.6,NE,GENOA 2 W,215,130
USC00253355,42.8947,-102.204,1127.8,NE,GORDON 6N,180,142
USC00253365,40.94,-100.152,787.9,NE,GOTHENBURG,196,126
USC00253425,41.5461,-98.5331,615.7,NE,GREELEY,209,131
USC00253605,41.6331,-103.954,1386.8,NE,HARRISBURG 12WNW,166,132
USC00253615,42.6858,-103.884,1478.3,NE,HARRISON,166,140
USC00253630,42.6167,-97.2608,417.6,NE,HARTINGTON,219,139
USC00253660,40.6472,-98.3836,590.7,NE,HASTINGS 4N,210,124
USC00253735,40.175,-97.5903,451.1,NE,HEBRON,217,120
USC00253755,42.3208,-103.073,1301.5,NE,HEMINGFORD,173,137
USC00253910,40.4517,-99.3803,707.1,NE,HOLDREGE,202,122
USC00254110,40.5208,-101.655,999.7,NE,IMPERIAL,184,123
USC00254440,41.2453,-103.634,1435,NE,KIMBALL 2NE,168,128
USC00254455,41.2097,-101.671,1011.3,NE,KINGSLEY DAM,184,128
USC00254900,41.1489,-102.636,1168,NE,LODGEPOLE,176,128
USC00254985,41.2808,-98.9681,627.3,NE,LOUP CITY,206,129
USC00255080,41.8292,-97.45,481.6,NE,MADISON,218,133
USC00255090,40.8508,-101.543,975.4,NE,MADRID,185,125
USC00255362,41.1431,-96.4808,352,NE,MEAD 6S,226,128
USC00255388,40.3761,-100.223,727.6,NE,MEDICINE CREEK DAM,196,122
USC00255565,40.5156,-98.9514,658.4,NE,MINDEN,206,123
USC00255810,40.6986,-95.8867,321.6,NE,NEBRASKA CITY 2NW,230,124
USC00255925,42.6008,-99.3333,679.7,NE,NEWPORT,203,139
USC00256040,41.4933,-98.7747,597.4,NE,NORTH LOUP,207,130
USC00256075,41.0569,-100.749,922,NE,NORTH PLATTE EXP FARM,192,127
USC00256135,42.0678,-97.9675,521.2,NE,OAKDALE,214,135
USC00256167,41.1439,-99.7633,786.4,NE,OCONTO,199,128
USC00256200,41.1275,-101.721,984.5,NE,OGALLALA,184,128
USC00256290,42.4594,-98.6564,606.6,NE,O NEILL,208,138
USC00256375,41.1839,-97.55,499.9,NE,OSCEOLA,217,128
USC00256385,41.4014,-102.346,1033.3,NE,OSHKOSH,179,130
USC00256395,42.3569,-97.5969,502.9,NE,OSMOND,217,137
USC00256570,40.1217,-96.1558,378,NE,PAWNEE CITY,228,119
USC00257040,41.0319,-98.9214,618.7,NE,RAVENNA,206,127
USC00257070,40.0978,-98.5197,524.3,NE,RED CLOUD,209,119
USC00257110,40.3575,-100.661,780.6,NE,RED WILLOW DAM,192,121
USC00257515,41.2078,-98.4608,547.4,NE,SAINT PAUL,210,128
USC00257715,40.8997,-97.0908,440.4,NE,SEWARD,221,126
USC00258320,40.0314,-97.9842,493.8,NE,SUPERIOR 4E,214,119
USC00258395,40.6661,-96.1892,335.3,NE,SYRACUSE,228,124
USC00258465,40.3544,-96.1939,338.3,NE,TECUMSEH 1S,228,121
USC00258480,41.7767,-96.2328,347.5,NE,TEKAMAH,228,133
USC00258628,40.1739,-101.061,856.5,NE,TRENTON DAM,189,120
USC00258915,42.2647,-96.8667,423.7,NE,WAKEFIELD,223,137
USC00258920,40.8433,-101.209,944.9,NE,WALLACE 2W,188,125
USC00258935,42.1506,-96.4756,390.1,NE,WALTHILL 1E,226,136
USC00259090,40.8639,-96.1414,335.3,NE,WEEPING WATER,228,125
USC00259200,41.845,-96.7142,399.3,NE,WEST POINT,224,133
USC00259510,40.8678,-97.5922,490.7,NE,YORK,217,125
USC00260150,36.5717,-116.462,746.8,NV,AMARGOSA FARMS-GAREY,66,91
USC00260800,39.9003,-116.588,1749.6,NV,BEOWAWE 49S U OF N RCH,65,118
USC00260955,38.5208,-115.544,1425.9,NV,BLUE EGLE CURRANT12SSW,73,107
USC00261485,39.1464,-119.768,1417.6,NV,CARSON CITY,39,112
USC00262229,41.9892,-118.634,1277.1,NV,DENIO,48,134
USC00262243,36.4378,-115.36,890,NV,DESERT NWR,75,90
USC00262708,39.5169,-115.962,1959.9,NV,EUREKA,70,115
USC00263205,39.0753,-119.941,1935.5,NV,GLENBROOK,38,111
USC00263957,40.6564,-118.163,1298.4,NV,IMLAY,52,124
USC00264527,41.5167,-118.719,1292,NV,LEONARD CREEK RCH,48,131
USC00264698,40.1906,-118.477,1211.6,NV,LOVELOCK,50,120
USC00264745,38.8678,-115.016,1690.4,NV,LUND,77,109
USC00264935,41.9953,-117.72,1350.3,NV,MCDERMITT,56,134
USC00264950,39.4136,-114.773,1911.1,NV,MCGILL,79,114
USC00265818,41.5678,-117.839,1280.2,NV,OROVADA 3 W,55,131
USC00265890,36.2786,-116.003,815,NV,PAHRUMP,69,89
USC00266005,41.5022,-117.548,1389.9,NV,PARADISE VALLEY 1 NW,57,131
USC00266691,36.0686,-115.46,1152.1,NV,RD ROCK SPG MT RCH SP,74,87
USC00266746,39.0633,-117.413,1954.7,NV,REESE RIVER IONE 13NE,58,111
USC00267123,40.2022,-115.493,1834.6,NV,RUBY LAKE NWR,74,120
USC00267192,40.4661,-118.305,1260.3,NV,RYE PATCH DAM,51,122
USC00267369,35.4661,-114.922,1079,NV,SEARCHLIGHT,78,82
USC00267463,37.7508,-117.637,1305.5,NV,SILVERPEAK,56,101
USC00267612,38.8822,-119.351,1524,NV,SMITH 6 N,43,110
USC00267620,38.7839,-117.174,1721.2,NV,SMOKEY VALLEY - CARVERS,60,109
USC00268588,36.4297,-114.513,609.6,NV,VALLEY OF FIRE SP,81,90
USC00268761,39.3128,-119.648,1932.4,NV,VIRGINIA CITY,40,113
USC00268822,39.0747,-119.119,1310.6,NV,WABUSKA 6 SE,45,111
USC00270681,44.0342,-71.9486,365.8,NH,BENTON 5 SW,422,151
USC00270690,44.4486,-71.1842,283.5,NH,BERLIN,428,154
USC00271647,44.8611,-71.54,341.4,NH,COLEBROOK 3SW,425,157
USC00272174,43.15,-70.95,24.4,NH,DURHAM,430,144
USC00272800,43.0303,-71.0839,48.8,NH,EPPING,429,143
USC00272999,45.0875,-71.2872,506,NH,FIRST CONNECTICUT LAKE,427,159
USC00273626,43.0167,-70.8333,25.9,NH,GREENLAND,431,143
USC00273850,43.7033,-72.2847,183.8,NH,HANOVER,419,148
USC00274399,42.9389,-72.3247,155.8,NH,KEENE,419,142
USC00274480,43.5492,-71.4642,152.4,NH,LAKEPORT 2,426,147
USC00274556,44.4911,-71.5725,262.1,NH,LANCASTER,425,154
USC00275629,43.3336,-72.0825,387.1,NH,MT SUNAPEE,421,145
USC00275712,42.7914,-71.4736,41.1,NH,NASHUA 2 NNW,426,141
USC00275995,44.0303,-71.1383,165.8,NH,NORTH CONWAY,428,151
USC00276818,44.2633,-71.255,612.6,NH,PINKHAM NOTCH,427,153
USC00281351,38.9536,-74.9358,6.1,NJ,CAPE MAY 2 NW,399,111
USC00282023,40.6669,-74.3231,22.9,NJ,CRANFORD,403,124
USC00283029,40.5631,-74.8831,79.2,NJ,FLEMINGTON 5 NNW,398,123
USC00283951,40.265,-74.5642,30.5,NJ,HIGHTSTOWN 2 W,401,121
USC00284229,39.8144,-74.7883,30.5,NJ,INDIAN MILLS 2 W,399,117
USC00286055,40.4719,-74.4364,26.2,NJ,NEW BRUNSWICK 3 SE,402,122
USC00288644,41.2214,-74.66,197.8,NJ,SUSSEX 2 NW,400,128
USC00290377,35.8742,-103.182,1354.8,NM,AMISTAD 5 SSW,172,85
USC00290417,31.9378,-108.769,1352.4,NM,ANIMAS 3 ESE,127,54
USC00290600,32.7547,-104.384,1026,NM,ARTESIA 6S,162,61
USC00290640,34.075,-107.621,2133.6,NM,AUGUSTINE 2E,137,71
USC00290692,36.835,-108.001,1720.3,NM,AZTEC RUINS NM,133,93
USC00290983,33.9114,-106.349,1691.9,NM,BINGHAM 2 NE,147,70
USC00291063,36.6669,-107.96,1769.7,NM,BLOOMFIELD 3 SE,134,92
USC00291286,32.8967,-107.309,1277.1,NM,CABALLO DAM,139,62
USC00291440,33.5311,-105.595,1975.1,NM,CAPITAN,153,67
USC00291469,32.3478,-104.223,951,NM,CARLSBAD,164,57
USC00291480,32.1783,-104.443,1351.8,NM,CARLSBAD CAVERNS,162,56
USC00291515,33.6308,-105.896,1647.4,NM,CARRIZOZO 1SW,150,68
USC00291630,36.7408,-105.596,2331.7,NM,CERRO,153,92
USC00291647,36.0286,-107.911,1881.8,NM,CHACO CANYON NATL MON,134,87
USC00291664,36.9178,-106.578,2392.7,NM,CHAMA,145,94
USC00291813,36.4661,-104.946,1993.4,NM,CIMARRON 4 SW,158,90
USC00291910,32.8331,-108.504,1455.7,NM,CLIFF 11 SE,129,61
USC00291939,34.4289,-103.199,1309.1,NM,CLOVIS,172,74
USC00291982,35.6414,-106.332,1694.7,NM,COCHITI DAM,147,84
USC00292030,35.4072,-104.191,1293.6,NM,CONCHAS DAM,164,82
USC00292250,35.0883,-107.518,1888.2,NM,CUBERO,137,79
USC00292510,35.1842,-105.057,1569.7,NM,DILIA,157,80
USC00292608,36.9358,-107,2070.5,NM,DULCE,141,94
USC00292700,36.5575,-105.263,2523.7,NM,EAGLE NEST,155,91
USC00292785,35.0381,-108.349,2201.6,NM,EL MORRO NATL MON,131,79
USC00292837,36.5928,-106.73,2054.4,NM,EL VADO DAM,144,91
USC00292848,33.1461,-107.184,1394.8,NM,ELEPHANT BUTTE DAM,140,64
USC00292865,32.9161,-105.338,1808.7,NM,ELK,155,62
USC00293060,34.8242,-106.034,1871.5,NM,ESTANCIA 4N,149,77
USC00293157,32.6317,-107.864,1591.7,NM,FAYWOOD,135,60
USC00293294,34.4667,-104.232,1226.8,NM,FT SUMNER,164,74
USC00293340,36.7381,-108.348,1563.6,NM,FRUITLAND,131,92
USC00293488,35.8917,-105.448,2514.6,NM,GASCON,154,86
USC00293577,33.3217,-108.879,1440.2,NM,GLENWOOD,126,65
USC00293649,34.2594,-106.093,2011.7,NM,GRAN QUIVIRA NATL MON,149,73
USC00293706,36.5939,-103.619,1829.4,NM,GRENVILLE,169,91
USC00294009,32.9203,-107.566,1605.4,NM,HILLSBORO,137,62
USC00294346,32.1103,-103.187,930.9,NM,JAL,172,55
USC00294369,35.7783,-106.687,1908.7,NM,JEMEZ SPRINGS,144,85
USC00295079,32.3094,-108.653,1293.6,NM,LORDSBURG 4 SE,128,57
USC00295084,35.8644,-106.321,2262.8,NM,LOS ALAMOS,147,85
USC00295150,34.7675,-106.761,1475.2,NM,LOS LUNAS 3 SSW,143,77
USC00295560,35.3364,-108.445,2438.4,NM,MCGAFFEY 5 SE,130,81
USC00295617,34.4278,-103.625,1401.8,NM,MELROSE,169,74
USC00295937,35.8022,-103.944,1665.7,NM,MOSQUERO 1 NE,166,85
USC00295960,32.9539,-105.823,2073.9,NM,MTN PARK,151,62
USC00296619,36.2994,-103.741,1722.1,NM,PASAMONTE,168,89
USC00296676,35.5489,-105.689,2096.4,NM,PECOS NM,152,83
USC00296687,34.6153,-105.474,1874.5,NM,PEDERNAL 9 E,154,75
USC00296804,33.3503,-105.14,1521,NM,PICACHO,156,65
USC00297008,34.1742,-103.352,1222.2,NM,PORTALES,171,72
USC00297226,34.78,-103.749,1542.3,NM,RAGLAND 3 SSW,168,77
USC00297279,36.9194,-104.433,2112.9,NM,RATON FLTR PLT,162,94
USC00297280,36.8864,-104.443,2023.9,NM,RATON KRTN RADIO,162,94
USC00297323,36.71,-105.416,2641.7,NM,RED RIVER,154,92
USC00297867,35.1086,-103.328,1289.3,NM,SAN JON,171,79
USC00298107,34.9358,-104.68,1405.1,NM,SANTA ROSA,160,78
USC00298387,34.0828,-106.883,1397.5,NM,SOCORRO,142,71
USC00298518,35.1767,-105.944,1943.1,NM,STANLEY 2 NNE,150,80
USC00298535,32.2822,-106.76,1184.5,NM,STATE UNIV,143,57
USC00298596,34.6033,-104.381,1312.5,NM,SUMNER LAKE,162,75
USC00298713,33.2422,-103.361,1222.9,NM,TATUM,171,64
USC00298845,36.7664,-106.554,2275,NM,TIERRA AMARILLA 4 N,145,93
USC00299031,35.7992,-107.181,2042.2,NM,TORREON NAVAJO MISSION,140,85
USC00299156,35.2006,-103.687,1245.4,NM,TUCUMCARI 4 NE,168,80
USC00299165,33.0719,-106.042,1350.3,NM,TULAROSA,149,63
USC00299686,32.7822,-106.176,1221,NM,WHITE SANDS NATL MON,148,61
USC00299691,32.5564,-108.367,1823.9,NM,WHITE SIGNAL,131,59
USC00299806,33.3497,-107.649,1888.5,NM,WINSTON,136,65
USC00299820,35.9478,-106.747,2505.5,NM,WOLF CANYON,144,86
USC00299851,34.4031,-104.613,1478.3,NM,YESO 2 S,161,74
USC00300055,43.2722,-78.1664,134.1,NY,ALBION 2 NE,372,145
USC00300343,42.9203,-77.7558,166.1,NY,AVON,375,142
USC00300443,43.0303,-78.1692,278.3,NY,BATAVIA,372,143
USC00300448,42.3489,-77.3478,341.4,NY,BATH,379,137
USC00300785,43.4361,-75.3697,472.4,NY,BOONVILLE 4 SSW,395,146
USC00300889,40.9461,-72.3069,18.3,NY,BRIDGEHAMPTON,419,126
USC00301095,42.3167,-74.0331,149.4,NY,CAIRO 3 NW,405,137
USC00301152,42.8453,-77.2808,219.5,NY,CANANDAIGUA 3 S,379,141
USC00301401,44.8786,-73.3953,47.9,NY,CHAZY,410,158
USC00301436,42.8239,-74.7386,414.5,NY,CHERRY VALLEY 2 NNE,400,141
USC00301752,42.7167,-74.9267,383.1,NY,COOPERSTOWN,398,140
USC00301966,44.7192,-73.7206,408.4,NY,DANNEMORA,408,156
USC00301974,42.5656,-77.7175,201.2,NY,DANSVILLE,376,139
USC00302036,42.2558,-74.9128,432.8,NY,DELHI 2 SE,398,137
USC00302060,42.0628,-75.4264,304.8,NY,DEPOSIT,394,135
USC00302129,41.0072,-73.8344,61,NY,DOBBS FERRY ARDSLEY,407,127
USC00302610,42.0997,-76.8358,288.6,NY,ELMIRA,383,135
USC00303025,42.3297,-78.4633,484.6,NY,FRANKLINVILLE,370,137
USC00303033,42.4497,-79.312,231.6,NY,FREDONIA,363,138
USC00303184,42.8767,-77.0308,218.8,NY,GENEVA RSCH FARM,381,142
USC00303284,43.3333,-73.7333,153.6,NY,GLENS FALLS FARM,408,145
USC00303346,44.3539,-75.5122,128,NY,GOUVERNEUR 3 NW,393,153
USC00303773,42.7442,-77.6083,274.9,NY,HEMLOCK,377,140
USC00304025,42.25,-73.8,18.3,NY,HUDSON COR.FACILITY,407,137
USC00304102,43.755,-74.2692,506,NY,INDIAN LAKE 2SW,403,149
USC00304174,42.4492,-76.4492,292.6,NY,ITHACA CORNELL UNIV,386,138
USC00304555,44.2444,-73.9855,591.3,NY,LAKE PLACID 2 S,406,152
USC00304647,44.7583,-74.6692,142,NY,LAWRENCEVILLE 3 SW,400,157
USC00304808,42.2472,-78.8125,495.3,NY,LITTLE VALLEY,367,136
USC00304912,43.7975,-75.4817,262.1,NY,LOWVILLE,394,149
USC00304996,44.8419,-74.3081,268.2,NY,MALONE,403,157
USC00305113,42.4694,-75.0106,373.4,NY,EMMONS,397,138
USC00305310,41.4603,-74.4489,213.4,NY,MIDDLETOWN 2 NW,402,130
USC00305426,41.7681,-74.155,379.5,NY,MOHONK LAKE,404,133
USC00306085,42.5117,-75.5197,301.4,NY,NORWICH,393,139
USC00306184,43.7025,-74.9839,532.8,NY,OLD FORGE,398,148
USC00306314,43.4622,-76.4933,106.7,NY,OSWEGO EAST,386,146
USC00306538,44.5658,-73.57,155.4,NY,PERU 2 WSW,409,155
USC00306774,41.38,-74.6847,143.3,NY,PORT JERVIS,400,130
USC00307484,43.0333,-73.8167,94.5,NY,SARATOGA SPRINGS 4 SW,407,143
USC00307799,42.0167,-74.4167,807.7,NY,SLIDE MTN,402,135
USC00307842,43.2078,-77.0128,128,NY,SODUS CTR,381,144
USC00308600,42.75,-73.6833,7.3,NY,TROY L&D,408,141
USC00308631,44.2308,-74.4383,512.1,NY,TUPPER LAKE SUNMOUNT,402,152
USC00308906,41.5514,-74.1628,115.8,NY,WALDEN 1 ESE,404,131
USC00308944,44.1481,-74.9003,460.2,NY,WANAKENA RNGR SCHOOL,398,152
USC00308962,42.6856,-78.2203,554.7,NY,WARSAW 6 SW,372,140
USC00309000,43.9761,-75.8753,151.5,NY,WATERTOWN,390,150
USC00309292,41.3906,-73.9608,97.5,NY,WEST POINT,406,130
USC00309389,43.5575,-73.4011,36.3,NY,WHITEHALL,410,147
USC00309670,41.2664,-73.7975,204.2,NY,YORKTOWN HEIGHTS 1W,407,129
USC00310090,35.3992,-80.1994,185.9,NC,ALBEMARLE,356,82
USC00310241,36.2911,-77.9822,100.6,NC,ARCOLA,374,89
USC00310286,35.7044,-79.8378,265.2,NC,ASHEBORO 2 W,359,84
USC00310674,35.5731,-76.5847,0,NC,BELHAVEN 3 NE,385,83
USC00310724,35.5044,-82.5967,643.1,NC,BENT CREEK,337,83
USC00310982,36.2114,-81.6442,1024.1,NC,BOONE 1 SE,344,88
USC00311239,36.0603,-79.4481,201.2,NC,BURLINGTON FIRE STN 5,362,87
USC00311624,35.8297,-82.1769,816.9,NC,CELO 2 S,340,85
USC00311677,35.9086,-79.0794,152.4,NC,CHAPEL HILL 2 W,365,86
USC00311881,35.0247,-78.2758,48.2,NC,CLINTON 2 NE,371,79
USC00311975,35.4111,-80.5833,213.4,NC,CONCORD,353,82
USC00312635,36.0164,-76.5517,3,NC,EDENTON,385,87
USC00313017,35.0583,-78.8583,29.3,NC,FAYETTEVILLE PWC,367,79
USC00313228,35.1803,-83.3928,647.7,NC,FRANKLIN,330,80
USC00313638,35.64,-77.3983,9.8,NC,GREENVILLE,378,84
USC00314055,35.0567,-83.1983,1173.5,NC,HIGHLANDS,332,79
USC00314063,35.9672,-79.9722,274.3,NC,HIGH POINT,358,86
USC00314464,35.1858,-79.6772,222.5,NC,JACKSON SPRINGS 5 WNW,360,80
USC00314496,36.4161,-81.4286,844.3,NC,JEFFERSON 2 E,346,90
USC00314860,34.7508,-79.4664,64,NC,LAURINBURG,362,77
USC00314938,35.915,-81.5378,365.8,NC,LENOIR,345,86
USC00314970,35.8458,-80.2597,231.6,NC,LEXINGTON,355,85
USC00314996,35.4606,-81.3289,274.3,NC,LINCOLNTON 4 W,347,82
USC00315116,34.0103,-78.545,12.2,NC,LONGWOOD,369,71
USC00315123,36.1028,-78.3039,79.2,NC,LOUISBURG,371,87
USC00315356,35.8036,-82.6658,609.6,NC,MARSHALL,336,85
USC00315743,35.8439,-80.4972,244.4,NC,MOCKSVILLE 5SE,354,85
USC00315771,34.9797,-80.5233,167.6,NC,MONROE 2 SE,353,78
USC00315890,36.4992,-80.6508,317.3,NC,MT AIRY 2 W,352,90
USC00315923,35.7586,-82.2711,1902,NC,MT MITCHELL,339,85
USC00316256,36.1631,-81.1494,341.4,NC,NORTH WILKESBORO,348,88
USC00316341,35.5261,-83.3089,621.8,NC,OCONALUFTEE,331,83
USC00316853,35.8722,-76.6592,6.1,NC,PLYMOUTH 5 E,384,85
USC00317074,35.7294,-78.6839,128,NC,RALEIGH 4 SW,368,84
USC00317202,36.3825,-79.6947,271.3,NC,REIDSVILLE 2 NW,360,90
USC00317615,35.6836,-80.4822,213.4,NC,SALISBURY,354,84
USC00317618,35.6967,-80.6228,251.5,NC,SALISBURY 9 WNW,353,84
USC00317656,35.5347,-79.0464,79.9,NC,SANFORD 8 NE,365,83
USC00317994,35.5164,-78.3458,45.7,NC,SMITHFIELD,371,83
USC00318292,35.81,-80.8808,289.6,NC,STATESVILLE 2 NNE,350,85
USC00318694,36.3919,-81.3039,876.3,NC,TRANSOU,347,90
USC00318744,35.2058,-82.2517,365.8,NC,TRYON,339,80
USC00318964,34.9603,-80.0772,146.3,NC,WADESBORO,357,78
USC00319123,35.7742,-83.0981,438.9,NC,WATERVILLE 2,333,85
USC00319147,35.4867,-82.9683,810.2,NC,WAYNESVILLE 1 E,334,82
USC00319423,34.6611,-78.0456,16.8,NC,WILLARD 4 SW,373,76
USC00319440,35.8528,-77.0306,6.1,NC,WILLIAMSTON 1 E,381,85
USC00319467,34.3208,-77.9206,12.2,NC,WILMINGTON 7 N,374,73
USC00319476,35.6939,-77.9456,33.5,NC,WILSON 3 SW,374,84
USC00319555,36.1308,-81.2275,326.1,NC,W KERR SCOTT RSVR,348,88
USC00319675,36.1306,-80.5481,266.7,NC,YADKINVILLE 6 E,353,88
USC00320382,46.0406,-99.3742,613.9,ND,ASHLEY,203,167
USC00320941,48.8217,-100.452,493.5,ND,BOTTINEAU,194,189
USC00320995,46.1825,-103.406,908.3,ND,BOWMAN,170,168
USC00321435,48.8628,-97.7014,271.3,ND,CAVALIER 7NW,216,189
USC00321766,47.405,-98.0381,420.6,ND,COOPERSTOWN,213,178
USC00321871,48.9075,-103.294,595,ND,CROSBY,171,190
USC00322188,46.8911,-102.811,749.8,ND,DICKINSON EXP STN,175,174
USC00322193,47.1944,-102.841,725.4,ND,DICKINSON RCH HQ,175,176
USC00322304,48.0475,-100.31,466.3,ND,DRAKE 9 NE,195,183
USC00322525,48.4267,-98.47,467.9,ND,EDMORE 1NW,210,186
USC00322809,47.1906,-103.225,838.2,ND,FAIRFIELD,172,176
USC00323117,46.0333,-97.595,381,ND,FORMAN 5 SSE,217,167
USC00323196,48.9081,-103.806,716.3,ND,FORTUNA 1 W,167,190
USC00323287,46.1581,-98.4,437.4,ND,FULLERTON 1 ESE,210,168
USC00323376,47.6539,-101.42,588.9,ND,GARRISON,186,180
USC00323963,48.9989,-99.3464,469.4,ND,HANSBORO 4 NNE,203,190
USC00324418,46.8844,-98.685,447.1,ND,JAMESTOWN STATE HOSP,208,174
USC00324571,47.8967,-102.921,752.9,ND,KEENE 3S,174,182
USC00324646,48.6692,-102.098,551.7,ND,KENMARE 1 WSW,181,188
USC00324937,46.3547,-98.2928,401.1,ND,LA MOURE,211,169
USC00324958,48.7622,-98.3447,492.3,ND,LANGDON EXP FARM,211,189
USC00325479,46.8128,-100.91,533.4,ND,MANDAN EXP STN,190,173
USC00325710,47.4825,-100.444,587.3,ND,MC CLUSKY,194,178
USC00325730,47.5808,-98.6422,474,ND,MC HENRY 3W,208,179
USC00325754,46.4025,-97.2381,327.7,ND,MC LEOD 3 E,220,170
USC00325993,48.1803,-101.296,539.2,ND,MINOT EXP STN,187,184
USC00326155,46.3719,-102.316,772.7,ND,MOTT,179,169
USC00326255,46.5067,-99.7692,603.5,ND,NAPOLEON,199,171
USC00326315,46.5414,-102.869,804.4,ND,NEW ENGLAND,175,171
USC00326365,46.8925,-101.49,655.3,ND,NEW SALEM 5NW,186,174
USC00327027,48.0356,-98.01,466.3,ND,PETERSBURG 2 N,213,183
USC00327311,46.1758,-101.856,755.9,ND,PRETTY ROCK,183,168
USC00327530,46.8886,-102.319,752.9,ND,RICHARDTON ABBEY,179,174
USC00327664,48.8811,-99.5861,558.7,ND,ROLLA 1NE,201,190
USC00328276,48.3567,-102.412,694.9,ND,STANLEY 3 NNW,178,185
USC00328792,48.3706,-100.391,451.1,ND,TOWNER 2 NE,194,185
USC00328812,47.2842,-103.901,737.6,ND,TROTTERS 3 SSE,166,177
USC00328840,47.5214,-100.888,577,ND,TURTLE LAKE,190,179
USC00328872,47.455,-101.146,623.3,ND,UNDERWOOD,188,178
USC00328913,48.6147,-100.726,434.3,ND,UPHAM 3 N,192,187
USC00328937,46.9558,-98.0203,368.8,ND,VALLEY CITY 3 NNW,213,174
USC00329195,47.2844,-101.027,528.8,ND,WASHBURN,189,177
USC00329246,47.6,-103.26,617.8,ND,WATFORD CITY 14S,171,179
USC00329333,48.9097,-101.019,457.8,ND,WESTHOPE,189,190
USC00329400,48.6631,-103.213,688.8,ND,WILDROSE 3NW,172,188
USC00329430,48.1375,-103.737,641.6,ND,WILLISTON EXP FARM,168,184
USC00329445,48.6061,-100.291,449,ND,WILLOW CITY,195,187
USC00330563,40.3533,-83.7747,361.2,OH,BELLEFONTAINE,327,121
USC00330862,41.3831,-83.6111,205.7,OH,BOWLING GREEN WWTP,329,130
USC00331072,40.8128,-82.9694,291.1,OH,BUCYRUS,334,125
USC00331197,40.0167,-81.5833,243.8,OH,CAMBRIDGE,345,119
USC00331390,40.5694,-84.5364,262.1,OH,CELINA 3 NE,321,123
USC00331404,40.3,-82.65,367.3,OH,CENTERBURG 2 SE,336,121
USC00331458,41.5833,-81.1833,344.4,OH,CHARDON,348,131
USC00331536,38.7983,-84.173,152.4,OH,CHILO MELDAHL L&D,324,109
USC00331541,41.0517,-81.9361,359.7,OH,CHIPPEWA LAKE,342,127
USC00331550,39.1169,-84.6961,152.4,OH,CINCINNATI FERNBANK,320,111
USC00331592,39.6106,-82.9547,205.1,OH,CIRCLEVILLE,334,115
USC00331890,40.2403,-81.8711,231.6,OH,COSHOCTON WPC PLT,343,120
USC00331905,40.3708,-81.7908,347.5,OH,COSHOCTON AG RSCH STN,343,121
USC00332044,40.4397,-82.3039,295.7,OH,DANVILLE 2 W,339,122
USC00332067,39.7633,-84.1911,227.1,OH,DAYTON MCD,324,117
USC00332098,41.2778,-84.3853,213.4,OH,DEFIANCE,322,129
USC00332251,41.6833,-80.6667,298.7,OH,DORSET,352,132
USC00332485,39.7347,-84.6336,305.4,OH,EATON,320,116
USC00332599,41.3833,-82.05,222.5,OH,ELYRIA 3 E,341,130
USC00332791,41.0461,-83.6622,234.1,OH,FINDLAY WPCC,328,127
USC00333029,38.8203,-82.1822,173.4,OH,GALLIPOLIS,340,109
USC00333375,40.1,-84.65,312.1,OH,GREENVILLE WTP,320,119
USC00333500,39.6667,-80.8667,189,OH,HANNIBAL L&D,351,116
USC00333758,39.2333,-83.6092,296,OH,HILLSBORO,329,112
USC00333780,41.3,-81.15,374.9,OH,HIRAM,348,129
USC00333874,41.2167,-83.7667,213.4,OH,HOYTVILLE 2 NE,327,128
USC00334189,40.6489,-83.6061,303.3,OH,KENTON,329,124
USC00334551,40.7247,-84.1294,259.1,OH,LIMA WWTP,324,124
USC00334874,40.7667,-82.6167,411.5,OH,MANSFIELD 5 W,337,125
USC00334927,39.4089,-81.4328,176.8,OH,MARIETTA WWTP,346,114
USC00334942,40.6167,-83.1333,294.1,OH,MARION 2 N,332,123
USC00334979,40.2411,-83.3669,304.8,OH,MARYSVILLE,331,120
USC00335041,39.6522,-81.8561,231.6,OH,MC CONNELLSVILLE LK 7,343,116
USC00335315,40.7692,-80.8561,356.6,OH,MILLPORT 4 NE,351,125
USC00335438,41.5886,-84.585,262.1,OH,MONTPELIER,321,131
USC00335747,40.0875,-82.4128,254.5,OH,NEWARK WATER WKS,338,119
USC00335857,39.7333,-82.2156,271.3,OH,NEW LEXINGTON 2 NW,340,116
USC00336196,41.2667,-82.2167,248.7,OH,OBERLIN,340,129
USC00336405,40.9461,-83.9614,234.7,OH,PANDORA,326,126
USC00336465,41.1244,-84.5922,221,OH,PAULDING,321,127
USC00336600,39.8386,-81.9167,310.9,OH,PHILO 3 SW,342,117
USC00336781,38.7569,-82.8872,164.6,OH,PORTSMOUTH-SCIOTOVILLE,334,109
USC00337693,40.2706,-84.1506,286.5,OH,SIDNEY 1 S,324,121
USC00337935,39.9667,-83.8167,283.5,OH,SPRINGFIELD NEW WWKS,327,118
USC00338025,40.3764,-80.6283,302.4,OH,STEUBENVILLE,352,122
USC00338313,41.1167,-83.1667,225.6,OH,TIFFIN,332,127
USC00338534,40.8333,-83.2833,260.3,OH,UPPER SANDUSKY,331,125
USC00338552,40.0986,-83.7822,304.8,OH,URBANA WWTP,327,119
USC00338609,40.8494,-84.5808,240.8,OH,VAN WERT 1 S,321,125
USC00338769,41.2,-80.8167,274.3,OH,WARREN 3 S,351,128
USC00338822,41.5183,-84.1453,228.6,OH,WAUSEON WTP,324,131
USC00338830,39.1114,-82.9797,170.7,OH,WAVERLY,334,111
USC00338951,40.1264,-82.9433,246.9,OH,WESTERVILLE,334,120
USC00339219,39.4833,-83.8167,313.9,OH,WILMINGTON 3 N,327,114
USC00339312,40.7833,-81.9167,310.9,OH,WOOSTER EXP STN,342,125
USC00340017,34.7864,-96.685,309.4,OK,ADA,224,77
USC00340179,34.5903,-99.3344,420.6,OK,ALTUS IRIG RSCH STN,203,75
USC00340184,34.8847,-99.2964,464.8,OK,ALTUS DAM,203,78
USC00340224,35.0619,-98.1989,356,OK,ANADARKO 3 E,212,79
USC00340593,36.8125,-100.531,751.3,OK,BEAVER,193,93
USC00340755,36.5297,-97.4472,304.8,OK,BILLINGS,218,91
USC00340830,35.1183,-97.67,388.6,OK,BLANCHARD 2 SSW,216,79
USC00340908,36.7236,-102.481,1259.7,OK,BOISE CITY 2 E,178,92
USC00341144,35.8292,-96.3917,253,OK,BRISTOW,226,85
USC00341724,36.7672,-98.4244,377.6,OK,CHEROKEE 4W,210,93
USC00341745,34.5019,-96.9717,321.6,OK,CHICKASAW NRA,222,75
USC00341750,35.0489,-97.9158,330.7,OK,CHICKASHA EXP STATION,214,79
USC00341828,36.3225,-95.5808,179.2,OK,CLAREMORE 2 ENE,233,89
USC00342318,35.9803,-96.7758,289.6,OK,CUSHING,223,86
USC00342660,34.5011,-97.9592,342.9,OK,DUNCAN,214,75
USC00342912,36.4194,-97.8747,379.5,OK,ENID,215,90
USC00342944,35.2164,-99.8628,627.9,OK,ERICK,199,80
USC00343304,36.5442,-99.535,618.7,OK,FORT SUPPLY 3SE,201,91
USC00343489,36.85,-100.057,685.8,OK,GATE,197,93
USC00343628,36.5914,-101.618,999.1,OK,GOODWELL RSCH STN,185,91
USC00343740,36.7425,-98.1331,365.8,OK,GREAT SALT PLAINS DAM,212,92
USC00343821,35.8161,-97.395,338.3,OK,GUTHRIE 5S,218,85
USC00344019,36.5381,-98.2661,411.5,OK,HELENA 1 SSE,211,91
USC00344055,36.0942,-97.835,357.8,OK,HENNESSEY 4 ESE,215,87
USC00344249,34.6808,-99.8136,494.1,OK,HOLLIS 5E,199,76
USC00344573,36.7222,-97.7903,318.5,OK,JEFFERSON,215,92
USC00344672,36.2133,-94.7725,362.7,OK,KANSAS 2 NE,239,88
USC00344861,35.8583,-97.9294,320,OK,KINGFISHER,214,85
USC00345468,34.0919,-96.7708,234.7,OK,MADILL,223,71
USC00345509,34.8911,-99.5017,486.2,OK,MANGUM,201,78
USC00345522,36.1747,-96.4433,253,OK,MANNFORD 6 NW,226,88
USC00345563,33.8761,-97.1642,244.4,OK,MARIETTA 5SW,220,70
USC00345693,35.1447,-94.9669,199.6,OK,MC CURTAIN 1 SE,238,80
USC00345779,35.505,-96.9772,281.9,OK,MEEKER 5 W,222,83
USC00346130,35.7781,-95.3339,157.9,OK,MUSKOGEE,235,85
USC00346139,36.2283,-99.17,576.1,OK,MUTUAL,204,88
USC00346278,36.8914,-97.0586,347.5,OK,NEWKIRK 1NW,221,94
USC00346629,36.1217,-98.315,370.3,OK,OKEENE,211,87
USC00346638,35.4253,-96.3033,285,OK,OKEMAH,227,82
USC00346935,36.6692,-96.3472,254.5,OK,PAWHUSKA,227,92
USC00347862,35.4572,-94.8047,201.2,OK,SALLISAW 2 NW,239,82
USC00348042,35.2317,-96.6531,279.8,OK,SEMINOLE,224,80
USC00348380,36.3894,-95.0597,208.8,OK,SPAVINAW,237,90
USC00348501,36.1175,-97.095,272.8,OK,STILLWATER 2 W,221,87
USC00348708,36.0381,-98.9592,519.7,OK,TALOGA,206,87
USC00349023,34.6147,-95.2803,182.9,OK,TUSKAHOMA,235,75
USC00349364,35.8578,-98.4139,466.3,OK,WATONGA,210,85
USC00349395,34.1747,-97.9964,278,OK,WAURIKA,214,72
USC00349404,36.5758,-98.8797,459.6,OK,WAYNOKA,206,91
USC00349422,35.52,-98.6986,493.2,OK,WEATHERFORD,208,83
USC00349629,34.7325,-98.7125,507.5,OK,WICHITA MTN WR,208,76
USC00350197,44.8197,-120.753,923.5,OR,ANTELOPE 6 SSW,31,157
USC00350304,42.2128,-122.714,532.2,OR,ASHLAND,16,136
USC00350471,43.1497,-124.402,6.1,OR,BANDON 2 NNE,2,144
USC00350501,43.9456,-120.217,1210.1,OR,BARNES STN,36,150
USC00350694,44.0567,-121.285,1115.6,OR,BEND,27,151
USC00350858,45.8472,-119.693,85.3,OR,BOARDMAN,40,165
USC00350897,45.6361,-121.952,18.9,OR,BONNEVILLE DAM,22,164
USC00351067,43.8094,-120.6,1414.3,OR,BROTHERS,33,149
USC00351433,44.3914,-122.481,292.6,OR,CASCADIA,18,154
USC00351448,42.1597,-123.642,419.7,OR,CAVE JUNCTION 1 WNW,8,136
USC00351574,42.7036,-121.995,1274.1,OR,CHILOQUIN 12 NW,22,140
USC00351643,46.1081,-123.206,6.7,OR,CLATSKANIE,12,167
USC00351682,45.205,-123.893,3.7,OR,CLOVERDALE,6,160
USC00351765,45.2325,-120.182,865.6,OR,CONDON,36,160
USC00351836,43.1872,-124.202,7,OR,COQUILLE CITY,4,144
USC00351862,44.6342,-123.19,68.6,OR,CORVALLIS STATE UNIV,12,156
USC00351902,43.7178,-123.058,253.3,OR,COTTAGE GROVE DAM,13,148
USC00351946,42.8967,-122.133,1973.6,OR,CRATER LAKE NPS HQ,20,142
USC00352292,44.7242,-122.255,371.9,OR,DETROIT DAM,19,156
USC00352374,43.7819,-122.963,249.9,OR,DORENA,14,149
USC00352406,43.6656,-123.327,89,OR,DRAIN,11,148
USC00352415,43.8081,-118.378,1071.4,OR,DREWSEY,50,149
USC00352440,45.4539,-121.13,405.4,OR,DUFUR,28,162
USC00352693,45.2689,-122.319,137.2,OR,ESTACADA 2 SE,19,161
USC00352997,45.5247,-123.103,54.9,OR,FOREST GROVE,13,163
USC00353047,44.4139,-122.673,167.6,OR,FOSTER DAM,16,154
USC00353402,45.3014,-121.742,1213.1,OR,GOVERNMENT CAMP,24,161
USC00353604,44.8736,-117.109,812.3,OR,HALFWAY,61,157
USC00353770,45.4486,-122.155,228,OR,HEADWORKS PORTLAND WTR,20,162
USC00353827,45.3653,-119.564,574.5,OR,HEPPNER,41,161
USC00354003,45.6847,-121.518,152.4,OR,HOOD RIVER EXP STN,25,164
USC00354060,42.2292,-122.381,1392,OR,HOWARD PRAIRIE DAM,18,136
USC00354126,43.3708,-122.965,329.2,OR,IDLEYLD PARK 4 NE,14,145
USC00354291,44.4233,-118.959,933.6,OR,JOHN DAY,46,154
USC00354606,44.6253,-122.719,158.5,OR,LACOMB 3 NNE,16,156
USC00354622,45.3167,-118.075,839.7,OR,LA GRANDE,53,161
USC00354670,42.2414,-120.368,1490.5,OR,LAKEVIEW 2 NNW,35,136
USC00354776,44.9231,-123.575,1093.9,OR,LAUREL MTN,9,158
USC00354811,44.1014,-122.689,205.7,OR,LEABURG 1 SW,16,151
USC00355055,42.6722,-122.675,481.6,OR,LOST CREEK DAM,16,140
USC00355142,44.6633,-121.146,744.6,OR,MADRAS 2 N,28,156
USC00355160,43.9794,-117.025,688.8,OR,MALHEUR BRANCH EXP STN,61,150
USC00355221,44.6125,-121.949,754.4,OR,MARION FRKS FISH HATCH,22,155
USC00355384,45.2214,-123.162,47.2,OR,MC MINNVILLE,12,160
USC00355593,45.9428,-118.409,295.7,OR,MILTON FREEWATER,50,166
USC00355734,45.4825,-120.724,570,OR,MORO,32,162
USC00356213,43.7428,-122.443,388.6,OR,OAKRIDGE FISH HATCHERY,18,148
USC00356334,45.3558,-122.605,50.9,OR,OREGON CITY,17,161
USC00356366,45.0333,-123.924,45.7,OR,OTIS 2 NE,6,159
USC00356405,43.65,-117.247,731.5,OR,OWYHEE DAM,60,148
USC00356532,44.7275,-121.251,429.8,OR,PELTON DAM,27,156
USC00356540,45.7206,-118.626,453.2,OR,PENDLETON BR EXP STN,48,164
USC00356634,45.4756,-118.825,524.3,OR,PILOT ROCK 1 SE,47,162
USC00356784,42.7519,-124.501,12.8,OR,PORT ORFORD 2,1,141
USC00356907,42.7342,-122.516,756.5,OR,PROSPECT 2 SW,17,140
USC00357169,42.9506,-123.357,207.3,OR,RIDDLE,11,142
USC00357277,43.3636,-117.114,1118.6,OR,ROCKVILLE 5 N,61,145
USC00357331,43.2131,-123.366,129.5,OR,ROSEBURG KQEN,11,144
USC00357675,44.1383,-118.975,1420.4,OR,SENECA,46,152
USC00357823,45.0058,-122.774,124.4,OR,SILVERTON,15,159
USC00358095,44.7892,-122.814,129.5,OR,STAYTON,15,157
USC00358173,42.9592,-120.79,1277.7,OR,SUMMER LAKE 1 S,31,142
USC00358466,45.1219,-122.07,341.4,OR,THREE LYNX,21,159
USC00358494,45.4583,-123.88,3,OR,TILLAMOOK 1 W,6,162
USC00358536,43.275,-122.45,627.9,OR,TOKETEE FALLS,18,145
USC00358746,45.2081,-117.876,842.8,OR,UNION EXP STN,54,160
USC00358884,45.8653,-123.19,190.5,OR,VERNONIA NO 2,12,165
USC00358997,45.5722,-117.531,890.9,OR,WALLOWA,57,163
USC00359316,43.6825,-121.688,1328.3,OR,WICKIUP DAM,24,148
USC00360140,40.495,-78.4667,402.3,PA,ALTOONA 3 W,370,122
USC00360656,39.9356,-77.2578,219.5,PA,BIGLERVILLE,379,118
USC00361212,41.6517,-76.8464,347.5,PA,CANTON,383,132
USC00361350,39.8508,-79.5833,603.5,PA,CHALK HILL 2 ENE,361,117
USC00361354,39.9353,-77.6394,195.1,PA,CHAMBERSBURG 1 ESE,376,118
USC00361485,41.1922,-79.4361,317,PA,CLARION 3 SW,362,128
USC00361705,39.7994,-79.3664,454.2,PA,CONFLUENCE 1 SW DAM,363,117
USC00362190,40.1636,-79.8694,232.3,PA,DONORA 1 SW,359,120
USC00362470,40.4681,-78.7289,591.3,PA,EBENSBURG SEWAGE PLT,368,122
USC00362629,41.5067,-78.2275,317,PA,EMPORIUM,372,131
USC00363028,41.4003,-79.8303,309.4,PA,FRANKLIN,359,130
USC00363758,41.4764,-75.1653,271.3,PA,HAWLEY 1 E,396,130
USC00364214,40.5969,-79.1183,335.9,PA,INDIANA 3 SE,365,123
USC00364325,41.5,-80.4667,317,PA,JAMESTOWN 2 NW,354,131
USC00364432,41.6767,-78.8036,533.4,PA,KANE 1NNE,367,132
USC00364763,40.05,-76.2742,82.3,PA,LANCASTER 2NE FLTR PLT,387,119
USC00364778,40.1167,-76.4333,109.7,PA,LANDISVILLE 2 NW,386,119
USC00364896,40.3333,-76.4667,137.2,PA,LEBANON 2 W,386,121
USC00364992,40.5864,-77.5692,140.2,PA,LEWISTOWN,377,123
USC00365109,41.1167,-77.45,172.5,PA,LOCK HAVEN SWG PLT,378,127
USC00365390,39.8253,-75.4283,3,PA,MARCUS HOOK,394,117
USC00365902,40.65,-80.3833,210.3,PA,MONTGOMERY L&D,354,124
USC00366194,40.1358,-74.955,18.3,PA,NESHAMINY FALLS,398,120
USC00366233,41.0172,-80.3619,251.5,PA,NEW CASTLE 1 N,355,127
USC00367029,41.7394,-75.4464,548.6,PA,PLEASANT MT 1 W,394,132
USC00367229,40.925,-79.2825,390.1,PA,PUTNEYVILLE 2 SE DAM,363,126
USC00367312,40.3814,-78.0753,304.8,PA,RAYSTOWN LAKE 2,373,122
USC00367322,40.4269,-75.9319,109.7,PA,READING 4 NNW,390,122
USC00367409,41.3297,-77.7381,201.2,PA,RENOVO,376,129
USC00367477,41.4197,-78.7492,414.5,PA,RIDGWAY,368,130
USC00367931,40.7831,-76.8617,128,PA,SELINSGROVE 2 S,383,125
USC00368073,40.05,-77.5167,207.3,PA,SHIPPENSBURG,377,119
USC00368184,41.05,-80.0667,381,PA,SLIPPERY ROCK 1 SSW,357,127
USC00368449,40.7933,-77.8672,356.6,PA,STATE COLLEGE,375,125
USC00368469,41.4,-78.0167,284.1,PA,STEVENSON DAM,373,130
USC00368888,41.6333,-79.7,371.9,PA,TITUSVILLE WTR WKS,360,132
USC00368905,41.7511,-76.4431,231.6,PA,TOWANDA 1 S,386,133
USC00369050,39.915,-79.7192,291.4,PA,UNIONTOWN 1 NE,360,118
USC00369298,41.8467,-79.1494,368.8,PA,WARREN,364,133
USC00369933,39.9167,-76.75,118.9,PA,YORK 3 SSW PUMP STN,384,118
USC00374266,41.4906,-71.5414,34.7,RI,KINGSTON,425,130
USC00375270,41.8564,-71.7333,192,RI,NORTH FOSTER 1 E,424,133
USC00380074,33.4925,-81.6958,150,SC,AIKEN 5SE,344,66
USC00380126,33.0167,-81.3167,54.9,SC,ALLENDALE 2 NW,347,63
USC00380165,34.5283,-82.6606,243.8,SC,ANDERSON,336,75
USC00380184,33.4408,-79.5672,10.7,SC,ANDREWS,361,66
USC00380448,33.3,-81.0306,50.3,SC,BAMBERG,349,65
USC00381093,33.5183,-79.0922,6.1,SC,BROOKGREEN GARDENS,365,67
USC00381277,34.0906,-82.5883,161.5,SC,CALHOUN FALLS,337,71
USC00381588,34.7319,-79.8833,42.7,SC,CHERAW,358,76
USC00381633,34.6847,-81.1958,170.7,SC,CHESTER 1 SE,348,76
USC00381726,33.6631,-82.1897,115.8,SC,CLARKS HILL 1 W,340,68
USC00381944,33.9831,-81.0167,73.8,SC,COLUMBIA UNIV OF SC,349,70
USC00383111,34.2933,-79.74,36.6,SC,FLORENCE 8 NE,360,73
USC00383754,34.1997,-82.1711,187.5,SC,GREENWOOD,340,72
USC00385017,34.4989,-82.0219,179.5,SC,LAURENS,341,74
USC00385200,34.1942,-81.415,216.7,SC,LITTLE MTN,346,72
USC00385633,34.7056,-79.5683,57.9,SC,MCCOLL 3 NNW,361,76
USC00386293,35.0317,-81.4928,152.4,SC,NINETY NINE ISLANDS,346,79
USC00386527,33.4886,-80.8733,54.9,SC,ORANGEBURG 2,351,66
USC00386831,34.8814,-82.7189,354.2,SC,PICKENS,336,78
USC00387631,33.9978,-81.7747,146.3,SC,SALUDA,343,70
USC00387666,34.1419,-80.87,134.1,SC,SANDHILL RSCH ELGIN,351,72
USC00387722,34.635,-81.5206,158.5,SC,SANTUCK,345,76
USC00388440,33.9364,-80.3569,53.9,SC,SUMTER,355,70
USC00388887,34.7483,-83.0842,298.7,SC,WALHALLA,333,76
USC00389122,34.6531,-82.4872,262.7,SC,WEST PELZER 2 W,338,76
USC00389327,34.3739,-81.0928,170.7,SC,WINNSBORO,349,73
USC00389350,34.9381,-81.0317,210.3,SC,WINTHROP UNIV,349,78
USC00390043,43.4892,-99.0631,512.1,SD,ACADEMY 2NE,205,146
USC00390128,43.6567,-97.7853,412.4,SD,ALEXANDRIA,215,148
USC00390236,43.03,-103.66,1079,SD,ARDMORE 1 NW,168,143
USC00390701,45.5286,-102.465,847.3,SD,BISON,178,163
USC00391032,43.5525,-97.5017,440.7,SD,BRIDGEWATER,217,147
USC00391049,45.7908,-97.75,408.4,SD,BRITTON,215,165
USC00391076,44.3253,-96.7686,497.4,SD,BROOKINGS 2 NE,223,153
USC00391294,45.5489,-103.974,951,SD,CAMP CROOK,166,163
USC00391519,44.7269,-97.0261,513.6,SD,CASTLEWOOD,221,156
USC00391579,43.0431,-96.9033,384,SD,CENTERVILLE 6 SE,222,143
USC00391621,43.735,-99.312,506,SD,CHAMBERLAIN 5 S,203,148
USC00391739,44.8817,-97.7325,549.9,SD,CLARK,216,158
USC00391777,44.7592,-96.6872,553.2,SD,CLEAR LAKE,224,157
USC00391873,45.725,-98.3,396.2,SD,COLUMBIA 8 N,211,164
USC00391972,43.9611,-101.861,735.8,SD,COTTONWOOD 2 E,183,150
USC00392302,44.3867,-97.5606,536.8,SD,DE SMET,217,154
USC00392429,45.0481,-101.599,723.9,SD,DUPREE,185,159
USC00392446,44.8658,-101.467,640.1,SD,DUPREE 15 SSE,186,157
USC00392557,43.3728,-103.878,1100.3,SD,EDGEMONT,166,145
USC00392797,45.7644,-99.6353,566.9,SD,EUREKA,200,165
USC00392852,45.0203,-102.037,790,SD,FAITH,181,159
USC00392927,45.0364,-99.1342,478.5,SD,FAULKTON 1 NW,204,159
USC00392984,44.0517,-96.5931,475.5,SD,FLANDREAU,225,151
USC00393029,44.0686,-98.0833,397.8,SD,FORESTBURG 4 NNE,213,151
USC00393069,44.41,-103.478,1005.8,SD,FT MEADE,170,154
USC00393217,44.0569,-99.0719,524.3,SD,GANN VALLEY 4NW,205,151
USC00393452,43.2356,-99.4339,658.4,SD,GREGORY,202,144
USC00393832,44.5222,-99.455,576.1,SD,HIGHMORE 1 W,202,155
USC00393838,44.8444,-99.4894,570,SD,HIGHMORE 23 N,202,157
USC00394007,43.4378,-103.474,1085.1,SD,HOT SPRINGS,170,146
USC00394184,43.7483,-101.941,743.7,SD,INTERIOR 3 NE,182,148
USC00394206,45.4478,-99.0383,466.3,SD,IPSWICH,205,162
USC00394516,43.9072,-99.8628,518.2,SD,KENNEBEC,199,150
USC00394596,44.6122,-101.337,658.4,SD,KIRLEY 6 N,187,155
USC00394834,44.3533,-103.771,1630.7,SD,LEAD,167,153
USC00394864,45.9397,-102.158,782.4,SD,LEMMON,180,166
USC00394983,43.46,-101.496,752.9,SD,LONGVALLEY,186,146
USC00395325,44.8933,-102.613,810.8,SD,MAURINE 12SW,177,158
USC00395381,45.8383,-101.277,662.9,SD,MC INTOSH 6 SE,187,165
USC00395456,45.155,-98.5825,396.8,SD,MELLETTE 4 W,209,160
USC00395481,43.2358,-97.5714,403.6,SD,MENNO,217,144
USC00395506,44.0667,-101.15,570,SD,MIDLAND,188,151
USC00395544,44.5208,-101.619,681.8,SD,MILESVILLE 5 NE,185,155
USC00395561,44.5178,-98.9814,484.6,SD,MILLER,206,155
USC00395620,43.3061,-100.656,788.5,SD,MISSION,192,145
USC00395638,43.1114,-100.608,856.5,SD,MISSION 14 S,193,143
USC00395870,43.8769,-103.458,1600.2,SD,MT RUSHMORE NATL MEM,170,150
USC00395891,43.8894,-100.708,707.1,SD,MURDO,192,150
USC00396054,44.7158,-103.427,871.7,SD,NEWELL,170,156
USC00396212,43.1878,-103.237,1020.5,SD,OELRICHS,172,144
USC00396292,44.7317,-100.145,563.9,SD,ONIDA 4 NW,196,156
USC00396427,44.0622,-103.482,1438.7,SD,PACTOLA DAM,170,151
USC00396574,43.0689,-98.5325,454.2,SD,PICKSTOWN,209,143
USC00396712,45.9042,-100.287,498.3,SD,POLLOCK,195,166
USC00396736,43.395,-102.389,859.5,SD,PORCUPINE 11 N,178,146
USC00396947,44.115,-103.283,1051.6,SD,RAPID CITY 4NW,171,151
USC00397062,45.3767,-103.368,935.7,SD,REDIG 11 NE,171,162
USC00397545,45.51,-100.036,579.7,SD,SELBY,197,163
USC00397742,45.6656,-97.0392,371.9,SD,SISSETON,221,164
USC00397882,44.5139,-103.872,1109.5,SD,SPEARFISH,167,155
USC00397992,44.2661,-99.4431,550.2,SD,STEPHAN 2 NW,202,153
USC00398116,45.3036,-97.0625,595.9,SD,SUMMIT 1 W,221,161
USC00398307,45.4283,-101.076,658.4,SD,TIMBER LAKE,189,162
USC00398472,42.9939,-97.8619,432.8,SD,TYNDALL,215,142
USC00398622,42.7625,-96.9194,362.7,SD,VERMILLION 2 SE,222,141
USC00398767,43.0833,-98.2894,435.9,SD,WAGNER,211,143
USC00398980,45.4247,-97.3269,557.8,SD,WAUBAY NWR,219,162
USC00399004,45.3331,-97.5228,565.4,SD,WEBSTER,217,161
USC00399070,44.0761,-98.5706,515.1,SD,WESSINGTON SPRINGS,209,151
USC00399232,43.7292,-98.7131,502.9,SD,WHITE LAKE,208,148
USC00399367,43.3686,-99.8403,614.5,SD,WINNER,199,145
USC00400081,36.3806,-84.8744,501.4,TN,ALLARDT,319,90
USC00400137,35.1131,-89.2122,140.2,TN,AMES PLANTATION,284,79
USC00400284,35.4322,-84.5833,286.5,TN,ATHENS,321,82
USC00400876,35.2622,-88.9892,138.7,TN,BOLIVAR WTR WKS,286,81
USC00401145,35.5894,-89.2586,100.6,TN,BROWNSVILLE,283,83
USC00401480,36.2456,-85.945,157,TN,CARTHAGE,310,88
